{
"type": "FeatureCollection",
"name": "merged",
"crs": { "type": "name", "properties": { "name": "urn:ogc:def:crs:OGC:1.3:CRS84" } },
"features": [
{ "type": "Feature", "properties": { "NAME": "keur yaa dikoone", "PLACE": "island", "ADDR:CITY": null, "ADDR:HOUSE": null, "ADDR:FLATS": null, "ADDR:POSTC": null }, "geometry": { "type": "Point", "coordinates": [ -17.5133946, 14.7559984 ] } },
{ "type": "Feature", "properties": { "NAME": "Ngor", "PLACE": "village", "ADDR:CITY": null, "ADDR:HOUSE": null, "ADDR:FLATS": null, "ADDR:POSTC": null }, "geometry": { "type": "Point", "coordinates": [ -17.508657, 14.747295 ] } },
{ "type": "Feature", "properties": { "NAME": null, "PLACE": "island", "ADDR:CITY": null, "ADDR:HOUSE": null, "ADDR:FLATS": null, "ADDR:POSTC": null }, "geometry": { "type": "Point", "coordinates": [ -17.477174, 14.768946 ] } },
{ "type": "Feature", "properties": { "NAME": "Mermoz", "PLACE": "suburb", "ADDR:CITY": null, "ADDR:HOUSE": null, "ADDR:FLATS": null, "ADDR:POSTC": null }, "geometry": { "type": "Point", "coordinates": [ -17.4758666, 14.7075339 ] } },
{ "type": "Feature", "properties": { "NAME": "Fann Mermoz", "PLACE": "suburb", "ADDR:CITY": null, "ADDR:HOUSE": null, "ADDR:FLATS": null, "ADDR:POSTC": null }, "geometry": { "type": "Point", "coordinates": [ -17.4726994, 14.7005769 ] } },
{ "type": "Feature", "properties": { "NAME": "Île des Madeleines", "PLACE": "island", "ADDR:CITY": null, "ADDR:HOUSE": null, "ADDR:FLATS": null, "ADDR:POSTC": null }, "geometry": { "type": "Point", "coordinates": [ -17.4713719, 14.6544493 ] } },
{ "type": "Feature", "properties": { "NAME": "Fann Résidence", "PLACE": "suburb", "ADDR:CITY": null, "ADDR:HOUSE": null, "ADDR:FLATS": null, "ADDR:POSTC": null }, "geometry": { "type": "Point", "coordinates": [ -17.470865, 14.6897254 ] } },
{ "type": "Feature", "properties": { "NAME": "Yoff", "PLACE": "suburb", "ADDR:CITY": null, "ADDR:HOUSE": null, "ADDR:FLATS": null, "ADDR:POSTC": null }, "geometry": { "type": "Point", "coordinates": [ -17.4687222, 14.7510504 ] } },
{ "type": "Feature", "properties": { "NAME": "Fann", "PLACE": "suburb", "ADDR:CITY": null, "ADDR:HOUSE": null, "ADDR:FLATS": null, "ADDR:POSTC": null }, "geometry": { "type": "Point", "coordinates": [ -17.4665592, 14.690791 ] } },
{ "type": "Feature", "properties": { "NAME": "Point E", "PLACE": "suburb", "ADDR:CITY": null, "ADDR:HOUSE": null, "ADDR:FLATS": null, "ADDR:POSTC": null }, "geometry": { "type": "Point", "coordinates": [ -17.4641817, 14.6964782 ] } },
{ "type": "Feature", "properties": { "NAME": "Fann Hock", "PLACE": "suburb", "ADDR:CITY": null, "ADDR:HOUSE": null, "ADDR:FLATS": null, "ADDR:POSTC": null }, "geometry": { "type": "Point", "coordinates": [ -17.4628058, 14.6801353 ] } },
{ "type": "Feature", "properties": { "NAME": "seneweb", "PLACE": null, "ADDR:CITY": "Dakar", "ADDR:HOUSE": "355", "ADDR:FLATS": null, "ADDR:POSTC": "30018" }, "geometry": { "type": "Point", "coordinates": [ -17.4599354, 14.7177008 ] } },
{ "type": "Feature", "properties": { "NAME": "Amitié 2", "PLACE": "suburb", "ADDR:CITY": null, "ADDR:HOUSE": null, "ADDR:FLATS": null, "ADDR:POSTC": null }, "geometry": { "type": "Point", "coordinates": [ -17.4593026, 14.7039626 ] } },
{ "type": "Feature", "properties": { "NAME": "Amitié", "PLACE": "suburb", "ADDR:CITY": null, "ADDR:HOUSE": null, "ADDR:FLATS": null, "ADDR:POSTC": null }, "geometry": { "type": "Point", "coordinates": [ -17.4586932, 14.7030079 ] } },
{ "type": "Feature", "properties": { "NAME": "Amitié 1", "PLACE": "suburb", "ADDR:CITY": null, "ADDR:HOUSE": null, "ADDR:FLATS": null, "ADDR:POSTC": null }, "geometry": { "type": "Point", "coordinates": [ -17.4579122, 14.7003761 ] } },
{ "type": "Feature", "properties": { "NAME": "Gueule Tapée", "PLACE": "suburb", "ADDR:CITY": null, "ADDR:HOUSE": null, "ADDR:FLATS": null, "ADDR:POSTC": null }, "geometry": { "type": "Point", "coordinates": [ -17.4572828, 14.6828667 ] } },
{ "type": "Feature", "properties": { "NAME": "Keur Damel", "PLACE": "suburb", "ADDR:CITY": null, "ADDR:HOUSE": null, "ADDR:FLATS": null, "ADDR:POSTC": null }, "geometry": { "type": "Point", "coordinates": [ -17.4561468, 14.7490084 ] } },
{ "type": "Feature", "properties": { "NAME": "Zone B", "PLACE": "suburb", "ADDR:CITY": null, "ADDR:HOUSE": null, "ADDR:FLATS": null, "ADDR:POSTC": null }, "geometry": { "type": "Point", "coordinates": [ -17.4555604, 14.6994048 ] } },
{ "type": "Feature", "properties": { "NAME": "Grand Dakar", "PLACE": "suburb", "ADDR:CITY": null, "ADDR:HOUSE": null, "ADDR:FLATS": null, "ADDR:POSTC": null }, "geometry": { "type": "Point", "coordinates": [ -17.4542946, 14.7051117 ] } },
{ "type": "Feature", "properties": { "NAME": "Fass Delorme", "PLACE": "suburb", "ADDR:CITY": null, "ADDR:HOUSE": null, "ADDR:FLATS": null, "ADDR:POSTC": null }, "geometry": { "type": "Point", "coordinates": [ -17.4539697, 14.6908373 ] } },
{ "type": "Feature", "properties": { "NAME": "Derklé", "PLACE": "suburb", "ADDR:CITY": null, "ADDR:HOUSE": null, "ADDR:FLATS": null, "ADDR:POSTC": null }, "geometry": { "type": "Point", "coordinates": [ -17.4539624, 14.7253098 ] } },
{ "type": "Feature", "properties": { "NAME": "Zone A", "PLACE": "suburb", "ADDR:CITY": null, "ADDR:HOUSE": null, "ADDR:FLATS": null, "ADDR:POSTC": null }, "geometry": { "type": "Point", "coordinates": [ -17.4538352, 14.7011731 ] } },
{ "type": "Feature", "properties": { "NAME": "Arafat", "PLACE": "suburb", "ADDR:CITY": null, "ADDR:HOUSE": null, "ADDR:FLATS": null, "ADDR:POSTC": null }, "geometry": { "type": "Point", "coordinates": [ -17.4532543, 14.7378442 ] } },
{ "type": "Feature", "properties": { "NAME": "Grand Dakar", "PLACE": "suburb", "ADDR:CITY": null, "ADDR:HOUSE": null, "ADDR:FLATS": null, "ADDR:POSTC": null }, "geometry": { "type": "Point", "coordinates": [ -17.4529293, 14.7163529 ] } },
{ "type": "Feature", "properties": { "NAME": "Grand Yoff", "PLACE": "suburb", "ADDR:CITY": null, "ADDR:HOUSE": null, "ADDR:FLATS": null, "ADDR:POSTC": null }, "geometry": { "type": "Point", "coordinates": [ -17.4528252, 14.7366613 ] } },
{ "type": "Feature", "properties": { "NAME": "Cité Marine", "PLACE": "suburb", "ADDR:CITY": null, "ADDR:HOUSE": null, "ADDR:FLATS": null, "ADDR:POSTC": null }, "geometry": { "type": "Point", "coordinates": [ -17.4527393, 14.7290037 ] } },
{ "type": "Feature", "properties": { "NAME": "Khar Yalla", "PLACE": "suburb", "ADDR:CITY": null, "ADDR:HOUSE": null, "ADDR:FLATS": null, "ADDR:POSTC": null }, "geometry": { "type": "Point", "coordinates": [ -17.4510656, 14.7286717 ] } },
{ "type": "Feature", "properties": { "NAME": "Medina", "PLACE": "suburb", "ADDR:CITY": null, "ADDR:HOUSE": null, "ADDR:FLATS": null, "ADDR:POSTC": null }, "geometry": { "type": "Point", "coordinates": [ -17.4509914, 14.6797366 ] } },
{ "type": "Feature", "properties": { "NAME": "HLM Fass", "PLACE": "suburb", "ADDR:CITY": null, "ADDR:HOUSE": null, "ADDR:FLATS": null, "ADDR:POSTC": null }, "geometry": { "type": "Point", "coordinates": [ -17.4509571, 14.6958602 ] } },
{ "type": "Feature", "properties": { "NAME": "Cerf Volant", "PLACE": "suburb", "ADDR:CITY": null, "ADDR:HOUSE": null, "ADDR:FLATS": null, "ADDR:POSTC": null }, "geometry": { "type": "Point", "coordinates": [ -17.4501102, 14.7015218 ] } },
{ "type": "Feature", "properties": { "NAME": "Cité Millionnaire", "PLACE": "suburb", "ADDR:CITY": null, "ADDR:HOUSE": null, "ADDR:FLATS": null, "ADDR:POSTC": null }, "geometry": { "type": "Point", "coordinates": [ -17.4501, 14.7399608 ] } },
{ "type": "Feature", "properties": { "NAME": "Ouagou Niayes", "PLACE": "suburb", "ADDR:CITY": null, "ADDR:HOUSE": null, "ADDR:FLATS": null, "ADDR:POSTC": null }, "geometry": { "type": "Point", "coordinates": [ -17.4490029, 14.7073664 ] } },
{ "type": "Feature", "properties": { "NAME": "Castor", "PLACE": "suburb", "ADDR:CITY": null, "ADDR:HOUSE": null, "ADDR:FLATS": null, "ADDR:POSTC": null }, "geometry": { "type": "Point", "coordinates": [ -17.4488555, 14.7255588 ] } },
{ "type": "Feature", "properties": { "NAME": "Bopp", "PLACE": "suburb", "ADDR:CITY": null, "ADDR:HOUSE": null, "ADDR:FLATS": null, "ADDR:POSTC": null }, "geometry": { "type": "Point", "coordinates": [ -17.4487455, 14.7036306 ] } },
{ "type": "Feature", "properties": { "NAME": "Village Grand Médine", "PLACE": "suburb", "ADDR:CITY": null, "ADDR:HOUSE": null, "ADDR:FLATS": null, "ADDR:POSTC": null }, "geometry": { "type": "Point", "coordinates": [ -17.447934, 14.7473984 ] } },
{ "type": "Feature", "properties": { "NAME": "Léona", "PLACE": "suburb", "ADDR:CITY": null, "ADDR:HOUSE": null, "ADDR:FLATS": null, "ADDR:POSTC": null }, "geometry": { "type": "Point", "coordinates": [ -17.4478899, 14.7320336 ] } },
{ "type": "Feature", "properties": { "NAME": "Dakar", "PLACE": "city", "ADDR:CITY": null, "ADDR:HOUSE": null, "ADDR:FLATS": null, "ADDR:POSTC": null }, "geometry": { "type": "Point", "coordinates": [ -17.447026, 14.6930042 ] } },
{ "type": "Feature", "properties": { "NAME": "Cité Port", "PLACE": "suburb", "ADDR:CITY": null, "ADDR:HOUSE": null, "ADDR:FLATS": null, "ADDR:POSTC": null }, "geometry": { "type": "Point", "coordinates": [ -17.4465997, 14.7011067 ] } },
{ "type": "Feature", "properties": { "NAME": "HLM 6", "PLACE": "suburb", "ADDR:CITY": null, "ADDR:HOUSE": null, "ADDR:FLATS": null, "ADDR:POSTC": null }, "geometry": { "type": "Point", "coordinates": [ -17.445717, 14.7045941 ] } },
{ "type": "Feature", "properties": { "NAME": "Colobane", "PLACE": "suburb", "ADDR:CITY": null, "ADDR:HOUSE": null, "ADDR:FLATS": null, "ADDR:POSTC": null }, "geometry": { "type": "Point", "coordinates": [ -17.4454251, 14.6951298 ] } },
{ "type": "Feature", "properties": { "NAME": "Rebeuss", "PLACE": "suburb", "ADDR:CITY": null, "ADDR:HOUSE": null, "ADDR:FLATS": null, "ADDR:POSTC": null }, "geometry": { "type": "Point", "coordinates": [ -17.4446397, 14.6737306 ] } },
{ "type": "Feature", "properties": { "NAME": "Cité Douane", "PLACE": "suburb", "ADDR:CITY": null, "ADDR:HOUSE": null, "ADDR:FLATS": null, "ADDR:POSTC": null }, "geometry": { "type": "Point", "coordinates": [ -17.4446342, 14.7019868 ] } },
{ "type": "Feature", "properties": { "NAME": "HLM 5", "PLACE": "suburb", "ADDR:CITY": null, "ADDR:HOUSE": null, "ADDR:FLATS": null, "ADDR:POSTC": null }, "geometry": { "type": "Point", "coordinates": [ -17.4444896, 14.7070266 ] } },
{ "type": "Feature", "properties": { "NAME": "HLM 2", "PLACE": "suburb", "ADDR:CITY": null, "ADDR:HOUSE": null, "ADDR:FLATS": null, "ADDR:POSTC": null }, "geometry": { "type": "Point", "coordinates": [ -17.4443952, 14.7139918 ] } },
{ "type": "Feature", "properties": { "NAME": "HLM 3", "PLACE": "suburb", "ADDR:CITY": null, "ADDR:HOUSE": null, "ADDR:FLATS": null, "ADDR:POSTC": null }, "geometry": { "type": "Point", "coordinates": [ -17.4443694, 14.7116507 ] } },
{ "type": "Feature", "properties": { "NAME": "HLM 4", "PLACE": "suburb", "ADDR:CITY": null, "ADDR:HOUSE": null, "ADDR:FLATS": null, "ADDR:POSTC": null }, "geometry": { "type": "Point", "coordinates": [ -17.4442407, 14.7091187 ] } },
{ "type": "Feature", "properties": { "NAME": "HLM", "PLACE": "suburb", "ADDR:CITY": null, "ADDR:HOUSE": null, "ADDR:FLATS": null, "ADDR:POSTC": null }, "geometry": { "type": "Point", "coordinates": [ -17.4441806, 14.7100734 ] } },
{ "type": "Feature", "properties": { "NAME": "HLM 1", "PLACE": "suburb", "ADDR:CITY": null, "ADDR:HOUSE": null, "ADDR:FLATS": null, "ADDR:POSTC": null }, "geometry": { "type": "Point", "coordinates": [ -17.4441377, 14.7170467 ] } },
{ "type": "Feature", "properties": { "NAME": "SOFT SOLUTIONS SARL", "PLACE": null, "ADDR:CITY": null, "ADDR:HOUSE": "B4", "ADDR:FLATS": null, "ADDR:POSTC": "10168" }, "geometry": { "type": "Point", "coordinates": [ -17.4434406, 14.7486668 ] } },
{ "type": "Feature", "properties": { "NAME": "Gibraltar", "PLACE": "suburb", "ADDR:CITY": null, "ADDR:HOUSE": null, "ADDR:FLATS": null, "ADDR:POSTC": null }, "geometry": { "type": "Point", "coordinates": [ -17.443258, 14.6868935 ] } },
{ "type": "Feature", "properties": { "NAME": "HLM Nimzatt", "PLACE": "suburb", "ADDR:CITY": null, "ADDR:HOUSE": null, "ADDR:FLATS": null, "ADDR:POSTC": null }, "geometry": { "type": "Point", "coordinates": [ -17.4429948, 14.7008826 ] } },
{ "type": "Feature", "properties": { "NAME": "Patte d'Oie", "PLACE": "suburb", "ADDR:CITY": null, "ADDR:HOUSE": null, "ADDR:FLATS": null, "ADDR:POSTC": null }, "geometry": { "type": "Point", "coordinates": [ -17.4428259, 14.7419945 ] } },
{ "type": "Feature", "properties": { "NAME": "Hann Equip", "PLACE": "suburb", "ADDR:CITY": null, "ADDR:HOUSE": null, "ADDR:FLATS": null, "ADDR:POSTC": null }, "geometry": { "type": "Point", "coordinates": [ -17.4357177, 14.7195704 ] } },
{ "type": "Feature", "properties": { "NAME": "Chez Donald", "PLACE": null, "ADDR:CITY": null, "ADDR:HOUSE": "14", "ADDR:FLATS": null, "ADDR:POSTC": null }, "geometry": { "type": "Point", "coordinates": [ -17.4356371, 14.6627052 ] } },
{ "type": "Feature", "properties": { "NAME": "Hann Bel Air", "PLACE": "suburb", "ADDR:CITY": null, "ADDR:HOUSE": null, "ADDR:FLATS": null, "ADDR:POSTC": null }, "geometry": { "type": "Point", "coordinates": [ -17.4355632, 14.7156355 ] } },
{ "type": "Feature", "properties": { "NAME": "Librairie Les 4 Vents", "PLACE": null, "ADDR:CITY": null, "ADDR:HOUSE": "55", "ADDR:FLATS": null, "ADDR:POSTC": null }, "geometry": { "type": "Point", "coordinates": [ -17.4354397, 14.6670562 ] } },
{ "type": "Feature", "properties": { "NAME": "Galerie Antenna", "PLACE": null, "ADDR:CITY": null, "ADDR:HOUSE": "9", "ADDR:FLATS": null, "ADDR:POSTC": null }, "geometry": { "type": "Point", "coordinates": [ -17.4319378, 14.6673136 ] } },
{ "type": "Feature", "properties": { "NAME": "Hann Marinas", "PLACE": "suburb", "ADDR:CITY": null, "ADDR:HOUSE": null, "ADDR:FLATS": null, "ADDR:POSTC": null }, "geometry": { "type": "Point", "coordinates": [ -17.4294692, 14.7079896 ] } },
{ "type": "Feature", "properties": { "NAME": "Bel Air", "PLACE": "suburb", "ADDR:CITY": null, "ADDR:HOUSE": null, "ADDR:FLATS": null, "ADDR:POSTC": null }, "geometry": { "type": "Point", "coordinates": [ -17.4284736, 14.7022198 ] } },
{ "type": "Feature", "properties": { "NAME": "Île de Gorée", "PLACE": "island", "ADDR:CITY": null, "ADDR:HOUSE": null, "ADDR:FLATS": null, "ADDR:POSTC": null }, "geometry": { "type": "Point", "coordinates": [ -17.398894, 14.6670619 ] } },
{ "type": "Feature", "properties": { "NAME": "Gorée", "PLACE": "hamlet", "ADDR:CITY": null, "ADDR:HOUSE": null, "ADDR:FLATS": null, "ADDR:POSTC": null }, "geometry": { "type": "Point", "coordinates": [ -17.398279, 14.6664099 ] } },
{ "type": "Feature", "properties": { "NAME": "Pikine", "PLACE": "city", "ADDR:CITY": null, "ADDR:HOUSE": null, "ADDR:FLATS": null, "ADDR:POSTC": null }, "geometry": { "type": "Point", "coordinates": [ -17.3970677, 14.7516462 ] } },
{ "type": "Feature", "properties": { "NAME": "Guédiawaye", "PLACE": "town", "ADDR:CITY": null, "ADDR:HOUSE": null, "ADDR:FLATS": null, "ADDR:POSTC": null }, "geometry": { "type": "Point", "coordinates": [ -17.3907555, 14.7775377 ] } },
{ "type": "Feature", "properties": { "NAME": "Guinaw-Rails", "PLACE": "hamlet", "ADDR:CITY": null, "ADDR:HOUSE": null, "ADDR:FLATS": null, "ADDR:POSTC": null }, "geometry": { "type": "Point", "coordinates": [ -17.3836361, 14.7481579 ] } },
{ "type": "Feature", "properties": { "NAME": "Yeumbeul", "PLACE": "village", "ADDR:CITY": null, "ADDR:HOUSE": null, "ADDR:FLATS": null, "ADDR:POSTC": null }, "geometry": { "type": "Point", "coordinates": [ -17.3357501, 14.7921694 ] } },
{ "type": "Feature", "properties": { "NAME": "Keur Massar Malika", "PLACE": "village", "ADDR:CITY": null, "ADDR:HOUSE": null, "ADDR:FLATS": null, "ADDR:POSTC": null }, "geometry": { "type": "Point", "coordinates": [ -17.3108913, 14.7827453 ] } },
{ "type": "Feature", "properties": { "NAME": "Niacourab", "PLACE": "village", "ADDR:CITY": null, "ADDR:HOUSE": null, "ADDR:FLATS": null, "ADDR:POSTC": null }, "geometry": { "type": "Point", "coordinates": [ -17.2739412, 14.7846754 ] } },
{ "type": "Feature", "properties": { "NAME": "Rufisque", "PLACE": "city", "ADDR:CITY": null, "ADDR:HOUSE": null, "ADDR:FLATS": null, "ADDR:POSTC": null }, "geometry": { "type": "Point", "coordinates": [ -17.2738444, 14.7164169 ] } },
{ "type": "Feature", "properties": { "NAME": "Bargny", "PLACE": "town", "ADDR:CITY": null, "ADDR:HOUSE": null, "ADDR:FLATS": null, "ADDR:POSTC": null }, "geometry": { "type": "Point", "coordinates": [ -17.2297409, 14.6938288 ] } },
{ "type": "Feature", "properties": { "NAME": "Ndiakhirate Digue", "PLACE": "village", "ADDR:CITY": null, "ADDR:HOUSE": null, "ADDR:FLATS": null, "ADDR:POSTC": null }, "geometry": { "type": "Point", "coordinates": [ -17.227335, 14.7688443 ] } },
{ "type": "Feature", "properties": { "NAME": "Sangalkam", "PLACE": "village", "ADDR:CITY": null, "ADDR:HOUSE": null, "ADDR:FLATS": null, "ADDR:POSTC": null }, "geometry": { "type": "Point", "coordinates": [ -17.2261543, 14.7779932 ] } },
{ "type": "Feature", "properties": { "NAME": "Noflaye", "PLACE": "village", "ADDR:CITY": null, "ADDR:HOUSE": null, "ADDR:FLATS": null, "ADDR:POSTC": null }, "geometry": { "type": "Point", "coordinates": [ -17.2149964, 14.7861064 ] } },
{ "type": "Feature", "properties": { "NAME": "Bambilor", "PLACE": "village", "ADDR:CITY": null, "ADDR:HOUSE": null, "ADDR:FLATS": null, "ADDR:POSTC": null }, "geometry": { "type": "Point", "coordinates": [ -17.1849902, 14.8025059 ] } },
{ "type": "Feature", "properties": { "NAME": "Diam Nadio", "PLACE": "town", "ADDR:CITY": null, "ADDR:HOUSE": null, "ADDR:FLATS": null, "ADDR:POSTC": null }, "geometry": { "type": "Point", "coordinates": [ -17.1710974, 14.7122432 ] } },
{ "type": "Feature", "properties": { "NAME": "Gorom II", "PLACE": "village", "ADDR:CITY": null, "ADDR:HOUSE": null, "ADDR:FLATS": null, "ADDR:POSTC": null }, "geometry": { "type": "Point", "coordinates": [ -17.1709771, 14.8109289 ] } },
{ "type": "Feature", "properties": { "NAME": "Demibiramdao", "PLACE": "village", "ADDR:CITY": null, "ADDR:HOUSE": null, "ADDR:FLATS": null, "ADDR:POSTC": null }, "geometry": { "type": "Point", "coordinates": [ -17.1554444, 14.8193101 ] } },
{ "type": "Feature", "properties": { "NAME": "Toubab Dialaw", "PLACE": "village", "ADDR:CITY": null, "ADDR:HOUSE": null, "ADDR:FLATS": null, "ADDR:POSTC": null }, "geometry": { "type": "Point", "coordinates": [ -17.1488596, 14.6039327 ] } },
{ "type": "Feature", "properties": { "NAME": "Bayakh", "PLACE": "village", "ADDR:CITY": null, "ADDR:HOUSE": null, "ADDR:FLATS": null, "ADDR:POSTC": null }, "geometry": { "type": "Point", "coordinates": [ -17.1359876, 14.8267894 ] } },
{ "type": "Feature", "properties": { "NAME": "Garage Benteigne", "PLACE": "village", "ADDR:CITY": null, "ADDR:HOUSE": null, "ADDR:FLATS": null, "ADDR:POSTC": null }, "geometry": { "type": "Point", "coordinates": [ -17.1328204, 14.6849941 ] } },
{ "type": "Feature", "properties": { "NAME": "Kayar", "PLACE": "city", "ADDR:CITY": null, "ADDR:HOUSE": null, "ADDR:FLATS": null, "ADDR:POSTC": null }, "geometry": { "type": "Point", "coordinates": [ -17.1193122, 14.9183011 ] } },
{ "type": "Feature", "properties": { "NAME": "Popenguine", "PLACE": "village", "ADDR:CITY": null, "ADDR:HOUSE": null, "ADDR:FLATS": null, "ADDR:POSTC": null }, "geometry": { "type": "Point", "coordinates": [ -17.1127517, 14.5549186 ] } },
{ "type": "Feature", "properties": { "NAME": "Keur Moussa", "PLACE": "village", "ADDR:CITY": null, "ADDR:HOUSE": null, "ADDR:FLATS": null, "ADDR:POSTC": null }, "geometry": { "type": "Point", "coordinates": [ -17.1099206, 14.7797081 ] } },
{ "type": "Feature", "properties": { "NAME": null, "PLACE": "town", "ADDR:CITY": null, "ADDR:HOUSE": null, "ADDR:FLATS": null, "ADDR:POSTC": null }, "geometry": { "type": "Point", "coordinates": [ -17.1095259, 14.5512969 ] } },
{ "type": "Feature", "properties": { "NAME": "Guereo", "PLACE": "village", "ADDR:CITY": null, "ADDR:HOUSE": null, "ADDR:FLATS": null, "ADDR:POSTC": null }, "geometry": { "type": "Point", "coordinates": [ -17.0965127, 14.5268317 ] } },
{ "type": "Feature", "properties": { "NAME": "Ndiass", "PLACE": "village", "ADDR:CITY": null, "ADDR:HOUSE": null, "ADDR:FLATS": null, "ADDR:POSTC": null }, "geometry": { "type": "Point", "coordinates": [ -17.0833971, 14.6410786 ] } },
{ "type": "Feature", "properties": { "NAME": "La Somone", "PLACE": "village", "ADDR:CITY": null, "ADDR:HOUSE": null, "ADDR:FLATS": null, "ADDR:POSTC": null }, "geometry": { "type": "Point", "coordinates": [ -17.0751306, 14.4867852 ] } },
{ "type": "Feature", "properties": { "NAME": "Guinabour", "PLACE": "village", "ADDR:CITY": null, "ADDR:HOUSE": null, "ADDR:FLATS": null, "ADDR:POSTC": null }, "geometry": { "type": "Point", "coordinates": [ -17.0656544, 14.5602286 ] } },
{ "type": "Feature", "properties": { "NAME": "Thiafoura", "PLACE": "village", "ADDR:CITY": null, "ADDR:HOUSE": null, "ADDR:FLATS": null, "ADDR:POSTC": null }, "geometry": { "type": "Point", "coordinates": [ -17.0640334, 14.5374183 ] } },
{ "type": "Feature", "properties": { "NAME": "Guiniabour", "PLACE": "hamlet", "ADDR:CITY": null, "ADDR:HOUSE": null, "ADDR:FLATS": null, "ADDR:POSTC": null }, "geometry": { "type": "Point", "coordinates": [ -17.063034, 14.5491449 ] } },
{ "type": "Feature", "properties": { "NAME": "Pout", "PLACE": "town", "ADDR:CITY": null, "ADDR:HOUSE": null, "ADDR:FLATS": null, "ADDR:POSTC": null }, "geometry": { "type": "Point", "coordinates": [ -17.0604323, 14.7716175 ] } },
{ "type": "Feature", "properties": { "NAME": "Ngaparou", "PLACE": "village", "ADDR:CITY": null, "ADDR:HOUSE": null, "ADDR:FLATS": null, "ADDR:POSTC": null }, "geometry": { "type": "Point", "coordinates": [ -17.0600485, 14.4641016 ] } },
{ "type": "Feature", "properties": { "NAME": "Nguerigne", "PLACE": "village", "ADDR:CITY": null, "ADDR:HOUSE": null, "ADDR:FLATS": null, "ADDR:POSTC": null }, "geometry": { "type": "Point", "coordinates": [ -17.0383093, 14.4758155 ] } },
{ "type": "Feature", "properties": { "NAME": "Sindia", "PLACE": "town", "ADDR:CITY": null, "ADDR:HOUSE": null, "ADDR:FLATS": null, "ADDR:POSTC": null }, "geometry": { "type": "Point", "coordinates": [ -17.0316463, 14.5811432 ] } },
{ "type": "Feature", "properties": { "NAME": "Bandia", "PLACE": "village", "ADDR:CITY": null, "ADDR:HOUSE": null, "ADDR:FLATS": null, "ADDR:POSTC": null }, "geometry": { "type": "Point", "coordinates": [ -17.0163759, 14.6120199 ] } },
{ "type": "Feature", "properties": { "NAME": "Saly", "PLACE": "village", "ADDR:CITY": null, "ADDR:HOUSE": null, "ADDR:FLATS": null, "ADDR:POSTC": null }, "geometry": { "type": "Point", "coordinates": [ -17.0118619, 14.4393031 ] } },
{ "type": "Feature", "properties": { "NAME": "Nguekhokh", "PLACE": "village", "ADDR:CITY": null, "ADDR:HOUSE": null, "ADDR:FLATS": null, "ADDR:POSTC": null }, "geometry": { "type": "Point", "coordinates": [ -17.0008756, 14.5111067 ] } },
{ "type": "Feature", "properties": { "NAME": "Gandigal", "PLACE": "village", "ADDR:CITY": null, "ADDR:HOUSE": null, "ADDR:FLATS": null, "ADDR:POSTC": null }, "geometry": { "type": "Point", "coordinates": [ -16.9862038, 14.466076 ] } },
{ "type": "Feature", "properties": { "NAME": "M'Bour", "PLACE": "city", "ADDR:CITY": null, "ADDR:HOUSE": null, "ADDR:FLATS": null, "ADDR:POSTC": null }, "geometry": { "type": "Point", "coordinates": [ -16.966155, 14.4173558 ] } },
{ "type": "Feature", "properties": { "NAME": "Malicounda Bambara", "PLACE": "village", "ADDR:CITY": null, "ADDR:HOUSE": null, "ADDR:FLATS": null, "ADDR:POSTC": null }, "geometry": { "type": "Point", "coordinates": [ -16.9602069, 14.4643238 ] } },
{ "type": "Feature", "properties": { "NAME": "Malicounda Wolof", "PLACE": "village", "ADDR:CITY": null, "ADDR:HOUSE": null, "ADDR:FLATS": null, "ADDR:POSTC": null }, "geometry": { "type": "Point", "coordinates": [ -16.9460402, 14.470528 ] } },
{ "type": "Feature", "properties": { "NAME": "Mbaling", "PLACE": "village", "ADDR:CITY": null, "ADDR:HOUSE": null, "ADDR:FLATS": null, "ADDR:POSTC": null }, "geometry": { "type": "Point", "coordinates": [ -16.9444255, 14.3789904 ] } },
{ "type": "Feature", "properties": { "NAME": "Warang", "PLACE": "village", "ADDR:CITY": null, "ADDR:HOUSE": null, "ADDR:FLATS": null, "ADDR:POSTC": null }, "geometry": { "type": "Point", "coordinates": [ -16.9375548, 14.3686413 ] } },
{ "type": "Feature", "properties": { "NAME": "Nianing", "PLACE": "village", "ADDR:CITY": null, "ADDR:HOUSE": null, "ADDR:FLATS": null, "ADDR:POSTC": null }, "geometry": { "type": "Point", "coordinates": [ -16.9319677, 14.3504837 ] } },
{ "type": "Feature", "properties": { "NAME": "Thiès", "PLACE": "city", "ADDR:CITY": null, "ADDR:HOUSE": null, "ADDR:FLATS": null, "ADDR:POSTC": null }, "geometry": { "type": "Point", "coordinates": [ -16.9243533, 14.8049629 ] } },
{ "type": "Feature", "properties": { "NAME": "Thiès", "PLACE": "city", "ADDR:CITY": null, "ADDR:HOUSE": null, "ADDR:FLATS": null, "ADDR:POSTC": null }, "geometry": { "type": "Point", "coordinates": [ -16.9243534, 14.8049629 ] } },
{ "type": "Feature", "properties": { "NAME": "Pointe Sarene", "PLACE": "village", "ADDR:CITY": null, "ADDR:HOUSE": null, "ADDR:FLATS": null, "ADDR:POSTC": null }, "geometry": { "type": "Point", "coordinates": [ -16.9160558, 14.2876976 ] } },
{ "type": "Feature", "properties": { "NAME": "M'boro-sur-Mer", "PLACE": "village", "ADDR:CITY": null, "ADDR:HOUSE": null, "ADDR:FLATS": null, "ADDR:POSTC": null }, "geometry": { "type": "Point", "coordinates": [ -16.9035907, 15.1827962 ] } },
{ "type": "Feature", "properties": { "NAME": "Peulgha", "PLACE": "hamlet", "ADDR:CITY": null, "ADDR:HOUSE": null, "ADDR:FLATS": null, "ADDR:POSTC": null }, "geometry": { "type": "Point", "coordinates": [ -16.8904985, 14.2883378 ] } },
{ "type": "Feature", "properties": { "NAME": "Keur Cheikh", "PLACE": "hamlet", "ADDR:CITY": null, "ADDR:HOUSE": null, "ADDR:FLATS": null, "ADDR:POSTC": null }, "geometry": { "type": "Point", "coordinates": [ -16.8847793, 14.2826674 ] } },
{ "type": "Feature", "properties": { "NAME": "Mboro", "PLACE": "town", "ADDR:CITY": null, "ADDR:HOUSE": null, "ADDR:FLATS": null, "ADDR:POSTC": null }, "geometry": { "type": "Point", "coordinates": [ -16.8812178, 15.1359847 ] } },
{ "type": "Feature", "properties": { "NAME": "Mbodiene Plage", "PLACE": "hamlet", "ADDR:CITY": null, "ADDR:HOUSE": null, "ADDR:FLATS": null, "ADDR:POSTC": null }, "geometry": { "type": "Point", "coordinates": [ -16.8724914, 14.2267237 ] } },
{ "type": "Feature", "properties": { "NAME": "Mbodiene", "PLACE": "village", "ADDR:CITY": null, "ADDR:HOUSE": null, "ADDR:FLATS": null, "ADDR:POSTC": null }, "geometry": { "type": "Point", "coordinates": [ -16.8660361, 14.2445803 ] } },
{ "type": "Feature", "properties": { "NAME": "Ngazobil", "PLACE": "village", "ADDR:CITY": null, "ADDR:HOUSE": null, "ADDR:FLATS": null, "ADDR:POSTC": null }, "geometry": { "type": "Point", "coordinates": [ -16.8563341, 14.2022783 ] } },
{ "type": "Feature", "properties": { "NAME": "Fadiouth", "PLACE": "village", "ADDR:CITY": null, "ADDR:HOUSE": null, "ADDR:FLATS": null, "ADDR:POSTC": null }, "geometry": { "type": "Point", "coordinates": [ -16.8370275, 14.1567655 ] } },
{ "type": "Feature", "properties": { "NAME": "Tivaouane", "PLACE": "town", "ADDR:CITY": null, "ADDR:HOUSE": null, "ADDR:FLATS": null, "ADDR:POSTC": null }, "geometry": { "type": "Point", "coordinates": [ -16.8152851, 14.9490858 ] } },
{ "type": "Feature", "properties": { "NAME": "Tanji", "PLACE": "village", "ADDR:CITY": null, "ADDR:HOUSE": null, "ADDR:FLATS": null, "ADDR:POSTC": null }, "geometry": { "type": "Point", "coordinates": [ -16.7982075, 13.3586783 ] } },
{ "type": "Feature", "properties": { "NAME": "Sandiara", "PLACE": "village", "ADDR:CITY": null, "ADDR:HOUSE": null, "ADDR:FLATS": null, "ADDR:POSTC": null }, "geometry": { "type": "Point", "coordinates": [ -16.7934747, 14.4349526 ] } },
{ "type": "Feature", "properties": { "NAME": "Tujereng", "PLACE": "village", "ADDR:CITY": null, "ADDR:HOUSE": null, "ADDR:FLATS": null, "ADDR:POSTC": null }, "geometry": { "type": "Point", "coordinates": [ -16.7889193, 13.3179272 ] } },
{ "type": "Feature", "properties": { "NAME": "Ghanatown", "PLACE": "village", "ADDR:CITY": null, "ADDR:HOUSE": null, "ADDR:FLATS": null, "ADDR:POSTC": null }, "geometry": { "type": "Point", "coordinates": [ -16.7678123, 13.3848204 ] } },
{ "type": "Feature", "properties": { "NAME": "Palmarin", "PLACE": "village", "ADDR:CITY": null, "ADDR:HOUSE": null, "ADDR:FLATS": null, "ADDR:POSTC": null }, "geometry": { "type": "Point", "coordinates": [ -16.7677499, 14.0369294 ] } },
{ "type": "Feature", "properties": { "NAME": "Sessene", "PLACE": "village", "ADDR:CITY": null, "ADDR:HOUSE": null, "ADDR:FLATS": null, "ADDR:POSTC": null }, "geometry": { "type": "Point", "coordinates": [ -16.7593775, 14.4298386 ] } },
{ "type": "Feature", "properties": { "NAME": "Sanyang", "PLACE": "village", "ADDR:CITY": null, "ADDR:HOUSE": null, "ADDR:FLATS": null, "ADDR:POSTC": null }, "geometry": { "type": "Point", "coordinates": [ -16.758371, 13.2675589 ] } },
{ "type": "Feature", "properties": { "NAME": "Brufut", "PLACE": "village", "ADDR:CITY": null, "ADDR:HOUSE": null, "ADDR:FLATS": null, "ADDR:POSTC": null }, "geometry": { "type": "Point", "coordinates": [ -16.749951, 13.3800108 ] } },
{ "type": "Feature", "properties": { "NAME": "Kafountine", "PLACE": "village", "ADDR:CITY": null, "ADDR:HOUSE": null, "ADDR:FLATS": null, "ADDR:POSTC": null }, "geometry": { "type": "Point", "coordinates": [ -16.7358918, 12.92683 ] } },
{ "type": "Feature", "properties": { "NAME": "Kafountine", "PLACE": "village", "ADDR:CITY": null, "ADDR:HOUSE": null, "ADDR:FLATS": null, "ADDR:POSTC": null }, "geometry": { "type": "Point", "coordinates": [ -16.7358802, 12.9267975 ] } },
{ "type": "Feature", "properties": { "NAME": "Pir-Goureye", "PLACE": "town", "ADDR:CITY": null, "ADDR:HOUSE": null, "ADDR:FLATS": null, "ADDR:POSTC": null }, "geometry": { "type": "Point", "coordinates": [ -16.7338113, 15.0112769 ] } },
{ "type": "Feature", "properties": { "NAME": "Senegambia beach", "PLACE": "beach", "ADDR:CITY": null, "ADDR:HOUSE": null, "ADDR:FLATS": null, "ADDR:POSTC": null }, "geometry": { "type": "Point", "coordinates": [ -16.7244781, 13.4432145 ] } },
{ "type": "Feature", "properties": { "NAME": "Dionewar", "PLACE": "village", "ADDR:CITY": null, "ADDR:HOUSE": null, "ADDR:FLATS": null, "ADDR:POSTC": null }, "geometry": { "type": "Point", "coordinates": [ -16.7239069, 13.8600598 ] } },
{ "type": "Feature", "properties": { "NAME": "Kololi", "PLACE": "village", "ADDR:CITY": null, "ADDR:HOUSE": null, "ADDR:FLATS": null, "ADDR:POSTC": null }, "geometry": { "type": "Point", "coordinates": [ -16.718479, 13.4510017 ] } },
{ "type": "Feature", "properties": { "NAME": null, "PLACE": null, "ADDR:CITY": "Banjul", "ADDR:HOUSE": null, "ADDR:FLATS": null, "ADDR:POSTC": null }, "geometry": { "type": "Point", "coordinates": [ -16.7082853, 13.4468648 ] } },
{ "type": "Feature", "properties": { "NAME": "Kotu beach", "PLACE": "village", "ADDR:CITY": null, "ADDR:HOUSE": null, "ADDR:FLATS": null, "ADDR:POSTC": null }, "geometry": { "type": "Point", "coordinates": [ -16.7047885, 13.4640666 ] } },
{ "type": "Feature", "properties": { "NAME": "Jambur", "PLACE": "village", "ADDR:CITY": null, "ADDR:HOUSE": null, "ADDR:FLATS": null, "ADDR:POSTC": null }, "geometry": { "type": "Point", "coordinates": [ -16.7005769, 13.3147506 ] } },
{ "type": "Feature", "properties": { "NAME": "Thiadiaye", "PLACE": "village", "ADDR:CITY": null, "ADDR:HOUSE": null, "ADDR:FLATS": null, "ADDR:POSTC": null }, "geometry": { "type": "Point", "coordinates": [ -16.6992441, 14.4199507 ] } },
{ "type": "Feature", "properties": { "NAME": "Manjai Kunda", "PLACE": "village", "ADDR:CITY": null, "ADDR:HOUSE": null, "ADDR:FLATS": null, "ADDR:POSTC": null }, "geometry": { "type": "Point", "coordinates": [ -16.6981371, 13.4422365 ] } },
{ "type": "Feature", "properties": { "NAME": "Fajara", "PLACE": "village", "ADDR:CITY": null, "ADDR:HOUSE": null, "ADDR:FLATS": null, "ADDR:POSTC": null }, "geometry": { "type": "Point", "coordinates": [ -16.6967805, 13.4715914 ] } },
{ "type": "Feature", "properties": { "NAME": "Ndangane", "PLACE": "village", "ADDR:CITY": null, "ADDR:HOUSE": null, "ADDR:FLATS": null, "ADDR:POSTC": null }, "geometry": { "type": "Point", "coordinates": [ -16.6925883, 14.0747904 ] } },
{ "type": "Feature", "properties": { "NAME": "Khombole", "PLACE": "town", "ADDR:CITY": null, "ADDR:HOUSE": null, "ADDR:FLATS": null, "ADDR:POSTC": null }, "geometry": { "type": "Point", "coordinates": [ -16.6910228, 14.7618657 ] } },
{ "type": "Feature", "properties": { "NAME": "Dippa Kunda", "PLACE": "village", "ADDR:CITY": null, "ADDR:HOUSE": null, "ADDR:FLATS": null, "ADDR:POSTC": null }, "geometry": { "type": "Point", "coordinates": [ -16.6884383, 13.4383129 ] } },
{ "type": "Feature", "properties": { "NAME": "Bakau", "PLACE": "village", "ADDR:CITY": null, "ADDR:HOUSE": null, "ADDR:FLATS": null, "ADDR:POSTC": null }, "geometry": { "type": "Point", "coordinates": [ -16.6851333, 13.4785902 ] } },
{ "type": "Feature", "properties": { "NAME": "Yundum", "PLACE": "town", "ADDR:CITY": null, "ADDR:HOUSE": null, "ADDR:FLATS": null, "ADDR:POSTC": null }, "geometry": { "type": "Point", "coordinates": [ -16.6839026, 13.3993745 ] } },
{ "type": "Feature", "properties": { "NAME": null, "PLACE": null, "ADDR:CITY": "Serrekunda", "ADDR:HOUSE": null, "ADDR:FLATS": null, "ADDR:POSTC": "3504" }, "geometry": { "type": "Point", "coordinates": [ -16.6762116, 13.4647024 ] } },
{ "type": "Feature", "properties": { "NAME": "Serrekunda", "PLACE": "city", "ADDR:CITY": null, "ADDR:HOUSE": null, "ADDR:FLATS": null, "ADDR:POSTC": null }, "geometry": { "type": "Point", "coordinates": [ -16.6748068, 13.4387619 ] } },
{ "type": "Feature", "properties": { "NAME": "Fimela", "PLACE": "village", "ADDR:CITY": null, "ADDR:HOUSE": null, "ADDR:FLATS": null, "ADDR:POSTC": null }, "geometry": { "type": "Point", "coordinates": [ -16.6642086, 14.1331941 ] } },
{ "type": "Feature", "properties": { "NAME": "Medina Suware Kunda", "PLACE": "village", "ADDR:CITY": null, "ADDR:HOUSE": null, "ADDR:FLATS": null, "ADDR:POSTC": null }, "geometry": { "type": "Point", "coordinates": [ -16.6624576, 13.3163875 ] } },
{ "type": "Feature", "properties": { "NAME": "Dioffior", "PLACE": "town", "ADDR:CITY": null, "ADDR:HOUSE": null, "ADDR:FLATS": null, "ADDR:POSTC": null }, "geometry": { "type": "Point", "coordinates": [ -16.6603298, 14.186871 ] } },
{ "type": "Feature", "properties": { "NAME": "Ndiossemone", "PLACE": "village", "ADDR:CITY": null, "ADDR:HOUSE": null, "ADDR:FLATS": null, "ADDR:POSTC": null }, "geometry": { "type": "Point", "coordinates": [ -16.6593253, 14.4140243 ] } },
{ "type": "Feature", "properties": { "NAME": "Brikama", "PLACE": "town", "ADDR:CITY": null, "ADDR:HOUSE": null, "ADDR:FLATS": null, "ADDR:POSTC": null }, "geometry": { "type": "Point", "coordinates": [ -16.6454389, 13.274139 ] } },
{ "type": "Feature", "properties": { "NAME": "Djilass", "PLACE": "village", "ADDR:CITY": null, "ADDR:HOUSE": null, "ADDR:FLATS": null, "ADDR:POSTC": null }, "geometry": { "type": "Point", "coordinates": [ -16.6346154, 14.249997 ] } },
{ "type": "Feature", "properties": { "NAME": "Mékhé", "PLACE": "town", "ADDR:CITY": null, "ADDR:HOUSE": null, "ADDR:FLATS": null, "ADDR:POSTC": null }, "geometry": { "type": "Point", "coordinates": [ -16.6295475, 15.1122214 ] } },
{ "type": "Feature", "properties": { "NAME": "Djirnda", "PLACE": "village", "ADDR:CITY": null, "ADDR:HOUSE": null, "ADDR:FLATS": null, "ADDR:POSTC": null }, "geometry": { "type": "Point", "coordinates": [ -16.6136745, 13.9803611 ] } },
{ "type": "Feature", "properties": { "NAME": "Tattaguine", "PLACE": "village", "ADDR:CITY": null, "ADDR:HOUSE": null, "ADDR:FLATS": null, "ADDR:POSTC": null }, "geometry": { "type": "Point", "coordinates": [ -16.6056355, 14.4235157 ] } },
{ "type": "Feature", "properties": { "NAME": "Diouloulou", "PLACE": "town", "ADDR:CITY": null, "ADDR:HOUSE": null, "ADDR:FLATS": null, "ADDR:POSTC": null }, "geometry": { "type": "Point", "coordinates": [ -16.5992977, 13.0489167 ] } },
{ "type": "Feature", "properties": { "NAME": "Bassoul", "PLACE": "village", "ADDR:CITY": null, "ADDR:HOUSE": null, "ADDR:FLATS": null, "ADDR:POSTC": null }, "geometry": { "type": "Point", "coordinates": [ -16.5930446, 13.9251767 ] } },
{ "type": "Feature", "properties": { "NAME": "Keur Martin", "PLACE": "village", "ADDR:CITY": null, "ADDR:HOUSE": null, "ADDR:FLATS": null, "ADDR:POSTC": null }, "geometry": { "type": "Point", "coordinates": [ -16.5760579, 14.4115965 ] } },
{ "type": "Feature", "properties": { "NAME": "Banjul", "PLACE": "city", "ADDR:CITY": null, "ADDR:HOUSE": null, "ADDR:FLATS": null, "ADDR:POSTC": null }, "geometry": { "type": "Point", "coordinates": [ -16.5750607, 13.4535144 ] } },
{ "type": "Feature", "properties": { "NAME": "Diouroup", "PLACE": "village", "ADDR:CITY": null, "ADDR:HOUSE": null, "ADDR:FLATS": null, "ADDR:POSTC": null }, "geometry": { "type": "Point", "coordinates": [ -16.5251989, 14.367295 ] } },
{ "type": "Feature", "properties": { "NAME": "Ndiolor", "PLACE": "hamlet", "ADDR:CITY": null, "ADDR:HOUSE": null, "ADDR:FLATS": null, "ADDR:POSTC": null }, "geometry": { "type": "Point", "coordinates": [ -16.4932699, 14.3599684 ] } },
{ "type": "Feature", "properties": { "NAME": "Saint-Louis", "PLACE": "town", "ADDR:CITY": null, "ADDR:HOUSE": null, "ADDR:FLATS": null, "ADDR:POSTC": null }, "geometry": { "type": "Point", "coordinates": [ -16.4930106, 16.0188633 ] } },
{ "type": "Feature", "properties": { "NAME": "Diarere", "PLACE": "village", "ADDR:CITY": null, "ADDR:HOUSE": null, "ADDR:FLATS": null, "ADDR:POSTC": null }, "geometry": { "type": "Point", "coordinates": [ -16.4840901, 14.4443131 ] } },
{ "type": "Feature", "properties": { "NAME": "Toubacouta", "PLACE": "village", "ADDR:CITY": null, "ADDR:HOUSE": null, "ADDR:FLATS": null, "ADDR:POSTC": null }, "geometry": { "type": "Point", "coordinates": [ -16.4705299, 13.781139 ] } },
{ "type": "Feature", "properties": { "NAME": "Léona Ndiaye", "PLACE": "town", "ADDR:CITY": null, "ADDR:HOUSE": null, "ADDR:FLATS": null, "ADDR:POSTC": null }, "geometry": { "type": "Point", "coordinates": [ -16.4610123, 15.7202183 ] } },
{ "type": "Feature", "properties": { "NAME": "Bambey", "PLACE": "town", "ADDR:CITY": null, "ADDR:HOUSE": null, "ADDR:FLATS": null, "ADDR:POSTC": null }, "geometry": { "type": "Point", "coordinates": [ -16.4539584, 14.6967858 ] } },
{ "type": "Feature", "properties": { "NAME": "Kébémer", "PLACE": "town", "ADDR:CITY": null, "ADDR:HOUSE": null, "ADDR:FLATS": null, "ADDR:POSTC": null }, "geometry": { "type": "Point", "coordinates": [ -16.4439815, 15.3700973 ] } },
{ "type": "Feature", "properties": { "NAME": "Ngayokhème", "PLACE": "village", "ADDR:CITY": null, "ADDR:HOUSE": null, "ADDR:FLATS": null, "ADDR:POSTC": null }, "geometry": { "type": "Point", "coordinates": [ -16.4361786, 14.5359235 ] } },
{ "type": "Feature", "properties": { "NAME": "Ngayokhème", "PLACE": "village", "ADDR:CITY": null, "ADDR:HOUSE": null, "ADDR:FLATS": null, "ADDR:POSTC": null }, "geometry": { "type": "Point", "coordinates": [ -16.4303448, 14.5303576 ] } },
{ "type": "Feature", "properties": { "NAME": "Karang", "PLACE": "town", "ADDR:CITY": null, "ADDR:HOUSE": null, "ADDR:FLATS": null, "ADDR:POSTC": null }, "geometry": { "type": "Point", "coordinates": [ -16.4254048, 13.6044853 ] } },
{ "type": "Feature", "properties": { "NAME": "Fatick", "PLACE": "city", "ADDR:CITY": null, "ADDR:HOUSE": null, "ADDR:FLATS": null, "ADDR:POSTC": null }, "geometry": { "type": "Point", "coordinates": [ -16.4042187, 14.3339653 ] } },
{ "type": "Feature", "properties": { "NAME": "Fatick", "PLACE": "state", "ADDR:CITY": null, "ADDR:HOUSE": null, "ADDR:FLATS": null, "ADDR:POSTC": null }, "geometry": { "type": "Point", "coordinates": [ -16.4024021, 13.9406041 ] } },
{ "type": "Feature", "properties": { "NAME": "Bagaya", "PLACE": "village", "ADDR:CITY": null, "ADDR:HOUSE": null, "ADDR:FLATS": null, "ADDR:POSTC": null }, "geometry": { "type": "Point", "coordinates": [ -16.3976205, 12.7316046 ] } },
{ "type": "Feature", "properties": { "NAME": "Niakhar", "PLACE": "village", "ADDR:CITY": null, "ADDR:HOUSE": null, "ADDR:FLATS": null, "ADDR:POSTC": null }, "geometry": { "type": "Point", "coordinates": [ -16.3970508, 14.4796619 ] } },
{ "type": "Feature", "properties": { "NAME": "Patar Sine", "PLACE": "village", "ADDR:CITY": null, "ADDR:HOUSE": null, "ADDR:FLATS": null, "ADDR:POSTC": null }, "geometry": { "type": "Point", "coordinates": [ -16.3854487, 14.5622773 ] } },
{ "type": "Feature", "properties": { "NAME": "Sokone", "PLACE": "town", "ADDR:CITY": null, "ADDR:HOUSE": null, "ADDR:FLATS": null, "ADDR:POSTC": null }, "geometry": { "type": "Point", "coordinates": [ -16.3725331, 13.878452 ] } },
{ "type": "Feature", "properties": { "NAME": "Guéoul", "PLACE": "town", "ADDR:CITY": null, "ADDR:HOUSE": null, "ADDR:FLATS": null, "ADDR:POSTC": null }, "geometry": { "type": "Point", "coordinates": [ -16.3396114, 15.4784857 ] } },
{ "type": "Feature", "properties": { "NAME": "Ziguinchor", "PLACE": "state", "ADDR:CITY": null, "ADDR:HOUSE": null, "ADDR:FLATS": null, "ADDR:POSTC": null }, "geometry": { "type": "Point", "coordinates": [ -16.3297894, 12.7159094 ] } },
{ "type": "Feature", "properties": { "NAME": "Keur Alpha", "PLACE": "village", "ADDR:CITY": null, "ADDR:HOUSE": null, "ADDR:FLATS": null, "ADDR:POSTC": null }, "geometry": { "type": "Point", "coordinates": [ -16.3105559, 14.2661859 ] } },
{ "type": "Feature", "properties": { "NAME": "Mbellacadiao", "PLACE": "village", "ADDR:CITY": null, "ADDR:HOUSE": null, "ADDR:FLATS": null, "ADDR:POSTC": null }, "geometry": { "type": "Point", "coordinates": [ -16.2956568, 14.3372036 ] } },
{ "type": "Feature", "properties": { "NAME": "Diakhar", "PLACE": "village", "ADDR:CITY": null, "ADDR:HOUSE": null, "ADDR:FLATS": null, "ADDR:POSTC": null }, "geometry": { "type": "Point", "coordinates": [ -16.2904858, 14.4609052 ] } },
{ "type": "Feature", "properties": { "NAME": "Ziguinchor", "PLACE": "city", "ADDR:CITY": null, "ADDR:HOUSE": null, "ADDR:FLATS": null, "ADDR:POSTC": null }, "geometry": { "type": "Point", "coordinates": [ -16.2744902, 12.5643513 ] } },
{ "type": "Feature", "properties": { "NAME": "Mpal", "PLACE": "village", "ADDR:CITY": null, "ADDR:HOUSE": null, "ADDR:FLATS": null, "ADDR:POSTC": null }, "geometry": { "type": "Point", "coordinates": [ -16.2685799, 15.9179148 ] } },
{ "type": "Feature", "properties": { "NAME": "Gandiaye", "PLACE": "village", "ADDR:CITY": null, "ADDR:HOUSE": null, "ADDR:FLATS": null, "ADDR:POSTC": null }, "geometry": { "type": "Point", "coordinates": [ -16.2682769, 14.240349 ] } },
{ "type": "Feature", "properties": { "NAME": "Tobor", "PLACE": "village", "ADDR:CITY": null, "ADDR:HOUSE": null, "ADDR:FLATS": null, "ADDR:POSTC": null }, "geometry": { "type": "Point", "coordinates": [ -16.2625268, 12.6592942 ] } },
{ "type": "Feature", "properties": { "NAME": "Diourbel", "PLACE": "town", "ADDR:CITY": null, "ADDR:HOUSE": null, "ADDR:FLATS": null, "ADDR:POSTC": null }, "geometry": { "type": "Point", "coordinates": [ -16.2353083, 14.6511383 ] } },
{ "type": "Feature", "properties": { "NAME": "Diamassira", "PLACE": "village", "ADDR:CITY": null, "ADDR:HOUSE": null, "ADDR:FLATS": null, "ADDR:POSTC": null }, "geometry": { "type": "Point", "coordinates": [ -16.2350953, 14.3262024 ] } },
{ "type": "Feature", "properties": { "NAME": "Keur Mbagne Diop", "PLACE": "village", "ADDR:CITY": null, "ADDR:HOUSE": null, "ADDR:FLATS": null, "ADDR:POSTC": null }, "geometry": { "type": "Point", "coordinates": [ -16.2344796, 14.3011631 ] } },
{ "type": "Feature", "properties": { "NAME": "Teubi", "PLACE": "village", "ADDR:CITY": null, "ADDR:HOUSE": null, "ADDR:FLATS": null, "ADDR:POSTC": null }, "geometry": { "type": "Point", "coordinates": [ -16.2320499, 12.7260958 ] } },
{ "type": "Feature", "properties": { "NAME": "Bignona", "PLACE": "village", "ADDR:CITY": null, "ADDR:HOUSE": null, "ADDR:FLATS": null, "ADDR:POSTC": null }, "geometry": { "type": "Point", "coordinates": [ -16.2274148, 12.7966633 ] } },
{ "type": "Feature", "properties": { "NAME": "Babol", "PLACE": "village", "ADDR:CITY": null, "ADDR:HOUSE": null, "ADDR:FLATS": null, "ADDR:POSTC": null }, "geometry": { "type": "Point", "coordinates": [ -16.2257932, 14.3182651 ] } },
{ "type": "Feature", "properties": { "NAME": "Louga", "PLACE": "town", "ADDR:CITY": null, "ADDR:HOUSE": null, "ADDR:FLATS": null, "ADDR:POSTC": null }, "geometry": { "type": "Point", "coordinates": [ -16.2222567, 15.6160944 ] } },
{ "type": "Feature", "properties": { "NAME": null, "PLACE": "village", "ADDR:CITY": null, "ADDR:HOUSE": null, "ADDR:FLATS": null, "ADDR:POSTC": null }, "geometry": { "type": "Point", "coordinates": [ -16.218795, 14.3153853 ] } },
{ "type": "Feature", "properties": { "NAME": "Dalan Diaye Gueye", "PLACE": "village", "ADDR:CITY": null, "ADDR:HOUSE": null, "ADDR:FLATS": null, "ADDR:POSTC": null }, "geometry": { "type": "Point", "coordinates": [ -16.2146951, 14.3144326 ] } },
{ "type": "Feature", "properties": { "NAME": "Diat Moury", "PLACE": "hamlet", "ADDR:CITY": null, "ADDR:HOUSE": null, "ADDR:FLATS": null, "ADDR:POSTC": null }, "geometry": { "type": "Point", "coordinates": [ -16.1987041, 14.3191506 ] } },
{ "type": "Feature", "properties": { "NAME": "Keur Lamine", "PLACE": "village", "ADDR:CITY": null, "ADDR:HOUSE": null, "ADDR:FLATS": null, "ADDR:POSTC": null }, "geometry": { "type": "Point", "coordinates": [ -16.1959642, 14.3313704 ] } },
{ "type": "Feature", "properties": { "NAME": "São Domingos", "PLACE": "town", "ADDR:CITY": null, "ADDR:HOUSE": null, "ADDR:FLATS": null, "ADDR:POSTC": null }, "geometry": { "type": "Point", "coordinates": [ -16.195627, 12.4019626 ] } },
{ "type": "Feature", "properties": { "NAME": "Sagne Bambara", "PLACE": "hamlet", "ADDR:CITY": null, "ADDR:HOUSE": null, "ADDR:FLATS": null, "ADDR:POSTC": null }, "geometry": { "type": "Point", "coordinates": [ -16.1919564, 14.2000336 ] } },
{ "type": "Feature", "properties": { "NAME": "Koung-Koung Sérère", "PLACE": "village", "ADDR:CITY": null, "ADDR:HOUSE": null, "ADDR:FLATS": null, "ADDR:POSTC": null }, "geometry": { "type": "Point", "coordinates": [ -16.1870702, 14.3165682 ] } },
{ "type": "Feature", "properties": { "NAME": "Sobydim", "PLACE": "village", "ADDR:CITY": null, "ADDR:HOUSE": null, "ADDR:FLATS": null, "ADDR:POSTC": null }, "geometry": { "type": "Point", "coordinates": [ -16.1804894, 14.2910636 ] } },
{ "type": "Feature", "properties": { "NAME": "Ndaru", "PLACE": "village", "ADDR:CITY": null, "ADDR:HOUSE": null, "ADDR:FLATS": null, "ADDR:POSTC": null }, "geometry": { "type": "Point", "coordinates": [ -16.1776969, 14.2869354 ] } },
{ "type": "Feature", "properties": { "NAME": "Mbacké Saloum", "PLACE": "village", "ADDR:CITY": null, "ADDR:HOUSE": null, "ADDR:FLATS": null, "ADDR:POSTC": null }, "geometry": { "type": "Point", "coordinates": [ -16.1775638, 14.3393285 ] } },
{ "type": "Feature", "properties": { "NAME": "Dya", "PLACE": "village", "ADDR:CITY": null, "ADDR:HOUSE": null, "ADDR:FLATS": null, "ADDR:POSTC": null }, "geometry": { "type": "Point", "coordinates": [ -16.168243, 14.2380251 ] } },
{ "type": "Feature", "properties": { "NAME": "Cacheu", "PLACE": "town", "ADDR:CITY": null, "ADDR:HOUSE": null, "ADDR:FLATS": null, "ADDR:POSTC": null }, "geometry": { "type": "Point", "coordinates": [ -16.1674941, 12.2590648 ] } },
{ "type": "Feature", "properties": { "NAME": "Drame Escale", "PLACE": "village", "ADDR:CITY": null, "ADDR:HOUSE": null, "ADDR:FLATS": null, "ADDR:POSTC": null }, "geometry": { "type": "Point", "coordinates": [ -16.1667018, 13.7955232 ] } },
{ "type": "Feature", "properties": { "NAME": "Thyalaye", "PLACE": "hamlet", "ADDR:CITY": null, "ADDR:HOUSE": null, "ADDR:FLATS": null, "ADDR:POSTC": null }, "geometry": { "type": "Point", "coordinates": [ -16.1664368, 14.2729686 ] } },
{ "type": "Feature", "properties": { "NAME": "Keur Ndene", "PLACE": "hamlet", "ADDR:CITY": null, "ADDR:HOUSE": null, "ADDR:FLATS": null, "ADDR:POSTC": null }, "geometry": { "type": "Point", "coordinates": [ -16.1658755, 14.2261668 ] } },
{ "type": "Feature", "properties": { "NAME": "Sibassor", "PLACE": "village", "ADDR:CITY": null, "ADDR:HOUSE": null, "ADDR:FLATS": null, "ADDR:POSTC": null }, "geometry": { "type": "Point", "coordinates": [ -16.1598114, 14.1843649 ] } },
{ "type": "Feature", "properties": { "NAME": "Ndiebel", "PLACE": "village", "ADDR:CITY": null, "ADDR:HOUSE": null, "ADDR:FLATS": null, "ADDR:POSTC": null }, "geometry": { "type": "Point", "coordinates": [ -16.155249, 14.3435756 ] } },
{ "type": "Feature", "properties": { "NAME": "Kabatoki", "PLACE": "village", "ADDR:CITY": null, "ADDR:HOUSE": null, "ADDR:FLATS": null, "ADDR:POSTC": null }, "geometry": { "type": "Point", "coordinates": [ -16.1350244, 14.1707859 ] } },
{ "type": "Feature", "properties": { "NAME": "Sing Sing", "PLACE": "village", "ADDR:CITY": null, "ADDR:HOUSE": null, "ADDR:FLATS": null, "ADDR:POSTC": null }, "geometry": { "type": "Point", "coordinates": [ -16.1217314, 14.1628214 ] } },
{ "type": "Feature", "properties": { "NAME": "Bwiam", "PLACE": "village", "ADDR:CITY": null, "ADDR:HOUSE": null, "ADDR:FLATS": null, "ADDR:POSTC": null }, "geometry": { "type": "Point", "coordinates": [ -16.0824932, 13.2301002 ] } },
{ "type": "Feature", "properties": { "NAME": "Dobang", "PLACE": "village", "ADDR:CITY": null, "ADDR:HOUSE": null, "ADDR:FLATS": null, "ADDR:POSTC": null }, "geometry": { "type": "Point", "coordinates": [ -16.0727501, 13.2409425 ] } },
{ "type": "Feature", "properties": { "NAME": "Kaolack", "PLACE": "city", "ADDR:CITY": null, "ADDR:HOUSE": null, "ADDR:FLATS": null, "ADDR:POSTC": null }, "geometry": { "type": "Point", "coordinates": [ -16.0698222, 14.1562682 ] } },
{ "type": "Feature", "properties": { "NAME": "Gossas", "PLACE": "town", "ADDR:CITY": null, "ADDR:HOUSE": null, "ADDR:FLATS": null, "ADDR:POSTC": null }, "geometry": { "type": "Point", "coordinates": [ -16.0661754, 14.4906272 ] } },
{ "type": "Feature", "properties": { "NAME": "Kerewan", "PLACE": "town", "ADDR:CITY": null, "ADDR:HOUSE": null, "ADDR:FLATS": null, "ADDR:POSTC": null }, "geometry": { "type": "Point", "coordinates": [ -16.0619425, 13.500329 ] } },
{ "type": "Feature", "properties": { "NAME": "Wack Ngouna", "PLACE": "village", "ADDR:CITY": null, "ADDR:HOUSE": null, "ADDR:FLATS": null, "ADDR:POSTC": null }, "geometry": { "type": "Point", "coordinates": [ -16.0610675, 13.7578573 ] } },
{ "type": "Feature", "properties": { "NAME": "Koutal", "PLACE": "village", "ADDR:CITY": null, "ADDR:HOUSE": null, "ADDR:FLATS": null, "ADDR:POSTC": null }, "geometry": { "type": "Point", "coordinates": [ -16.0602566, 14.0865658 ] } },
{ "type": "Feature", "properties": { "NAME": "Keur Madjabel", "PLACE": "village", "ADDR:CITY": null, "ADDR:HOUSE": null, "ADDR:FLATS": null, "ADDR:POSTC": null }, "geometry": { "type": "Point", "coordinates": [ -16.0568221, 13.8464694 ] } },
{ "type": "Feature", "properties": { "NAME": "Thiawandou", "PLACE": "village", "ADDR:CITY": null, "ADDR:HOUSE": null, "ADDR:FLATS": null, "ADDR:POSTC": null }, "geometry": { "type": "Point", "coordinates": [ -16.0490138, 14.0637055 ] } },
{ "type": "Feature", "properties": { "NAME": "Darou Mousti", "PLACE": "town", "ADDR:CITY": null, "ADDR:HOUSE": null, "ADDR:FLATS": null, "ADDR:POSTC": null }, "geometry": { "type": "Point", "coordinates": [ -16.046932, 15.0384402 ] } },
{ "type": "Feature", "properties": { "NAME": "Kahone", "PLACE": "town", "ADDR:CITY": null, "ADDR:HOUSE": null, "ADDR:FLATS": null, "ADDR:POSTC": null }, "geometry": { "type": "Point", "coordinates": [ -16.0372972, 14.157029 ] } },
{ "type": "Feature", "properties": { "NAME": "Oumbal", "PLACE": "village", "ADDR:CITY": null, "ADDR:HOUSE": null, "ADDR:FLATS": null, "ADDR:POSTC": null }, "geometry": { "type": "Point", "coordinates": [ -16.0206875, 14.0223806 ] } },
{ "type": "Feature", "properties": { "NAME": "Adeane", "PLACE": "town", "ADDR:CITY": null, "ADDR:HOUSE": null, "ADDR:FLATS": null, "ADDR:POSTC": null }, "geometry": { "type": "Point", "coordinates": [ -16.0166549, 12.6296876 ] } },
{ "type": "Feature", "properties": { "NAME": "Keur N'deck", "PLACE": "village", "ADDR:CITY": null, "ADDR:HOUSE": null, "ADDR:FLATS": null, "ADDR:POSTC": null }, "geometry": { "type": "Point", "coordinates": [ -16.0116699, 14.1492248 ] } },
{ "type": "Feature", "properties": { "NAME": "Mbody", "PLACE": "village", "ADDR:CITY": null, "ADDR:HOUSE": null, "ADDR:FLATS": null, "ADDR:POSTC": null }, "geometry": { "type": "Point", "coordinates": [ -16.0061446, 14.1467921 ] } },
{ "type": "Feature", "properties": { "NAME": "Maka Kahone", "PLACE": "village", "ADDR:CITY": null, "ADDR:HOUSE": null, "ADDR:FLATS": null, "ADDR:POSTC": null }, "geometry": { "type": "Point", "coordinates": [ -16.0018467, 14.1448459 ] } },
{ "type": "Feature", "properties": { "NAME": "Koki", "PLACE": "town", "ADDR:CITY": null, "ADDR:HOUSE": null, "ADDR:FLATS": null, "ADDR:POSTC": null }, "geometry": { "type": "Point", "coordinates": [ -15.9930634, 15.5066159 ] } },
{ "type": "Feature", "properties": { "NAME": "Keur Taiba", "PLACE": "hamlet", "ADDR:CITY": null, "ADDR:HOUSE": null, "ADDR:FLATS": null, "ADDR:POSTC": null }, "geometry": { "type": "Point", "coordinates": [ -15.9873036, 14.0702013 ] } },
{ "type": "Feature", "properties": { "NAME": "Marassoum", "PLACE": "town", "ADDR:CITY": null, "ADDR:HOUSE": null, "ADDR:FLATS": null, "ADDR:POSTC": null }, "geometry": { "type": "Point", "coordinates": [ -15.9782027, 12.8336303 ] } },
{ "type": "Feature", "properties": { "NAME": "Parasel", "PLACE": "village", "ADDR:CITY": null, "ADDR:HOUSE": null, "ADDR:FLATS": null, "ADDR:POSTC": null }, "geometry": { "type": "Point", "coordinates": [ -15.9756418, 14.1333702 ] } },
{ "type": "Feature", "properties": { "NAME": "Farabougouin", "PLACE": "village", "ADDR:CITY": null, "ADDR:HOUSE": null, "ADDR:FLATS": null, "ADDR:POSTC": null }, "geometry": { "type": "Point", "coordinates": [ -15.9651245, 14.1291059 ] } },
{ "type": "Feature", "properties": { "NAME": "Keur Momar Sarr", "PLACE": "village", "ADDR:CITY": null, "ADDR:HOUSE": null, "ADDR:FLATS": null, "ADDR:POSTC": null }, "geometry": { "type": "Point", "coordinates": [ -15.9607728, 15.9200824 ] } },
{ "type": "Feature", "properties": { "NAME": "Campement", "PLACE": "hamlet", "ADDR:CITY": null, "ADDR:HOUSE": null, "ADDR:FLATS": null, "ADDR:POSTC": null }, "geometry": { "type": "Point", "coordinates": [ -15.9546996, 14.0683275 ] } },
{ "type": "Feature", "properties": { "NAME": "Guinguinéo", "PLACE": "town", "ADDR:CITY": null, "ADDR:HOUSE": null, "ADDR:FLATS": null, "ADDR:POSTC": null }, "geometry": { "type": "Point", "coordinates": [ -15.9446391, 14.2693044 ] } },
{ "type": "Feature", "properties": { "NAME": "Keur Mbaka", "PLACE": "village", "ADDR:CITY": null, "ADDR:HOUSE": null, "ADDR:FLATS": null, "ADDR:POSTC": null }, "geometry": { "type": "Point", "coordinates": [ -15.9444866, 13.9366858 ] } },
{ "type": "Feature", "properties": { "NAME": "Nouffane Masserione", "PLACE": "village", "ADDR:CITY": null, "ADDR:HOUSE": null, "ADDR:FLATS": null, "ADDR:POSTC": null }, "geometry": { "type": "Point", "coordinates": [ -15.938397, 14.1253685 ] } },
{ "type": "Feature", "properties": { "NAME": "Latmingué", "PLACE": "village", "ADDR:CITY": null, "ADDR:HOUSE": null, "ADDR:FLATS": null, "ADDR:POSTC": null }, "geometry": { "type": "Point", "coordinates": [ -15.9343417, 14.071207 ] } },
{ "type": "Feature", "properties": { "NAME": "Ndargadjakathe", "PLACE": "village", "ADDR:CITY": null, "ADDR:HOUSE": null, "ADDR:FLATS": null, "ADDR:POSTC": null }, "geometry": { "type": "Point", "coordinates": [ -15.9328122, 14.1251323 ] } },
{ "type": "Feature", "properties": { "NAME": "Ndoffane", "PLACE": "village", "ADDR:CITY": null, "ADDR:HOUSE": null, "ADDR:FLATS": null, "ADDR:POSTC": null }, "geometry": { "type": "Point", "coordinates": [ -15.9292464, 13.9220702 ] } },
{ "type": "Feature", "properties": { "NAME": "Daga Diakhate", "PLACE": "village", "ADDR:CITY": null, "ADDR:HOUSE": null, "ADDR:FLATS": null, "ADDR:POSTC": null }, "geometry": { "type": "Point", "coordinates": [ -15.929049, 14.126243 ] } },
{ "type": "Feature", "properties": { "NAME": "Merinaghene", "PLACE": "village", "ADDR:CITY": null, "ADDR:HOUSE": null, "ADDR:FLATS": null, "ADDR:POSTC": null }, "geometry": { "type": "Point", "coordinates": [ -15.9194024, 15.9557359 ] } },
{ "type": "Feature", "properties": { "NAME": "Keur Toro", "PLACE": "village", "ADDR:CITY": null, "ADDR:HOUSE": null, "ADDR:FLATS": null, "ADDR:POSTC": null }, "geometry": { "type": "Point", "coordinates": [ -15.910746, 14.1281949 ] } },
{ "type": "Feature", "properties": { "NAME": "Diamenar", "PLACE": "village", "ADDR:CITY": null, "ADDR:HOUSE": null, "ADDR:FLATS": null, "ADDR:POSTC": null }, "geometry": { "type": "Point", "coordinates": [ -15.9077294, 16.0032641 ] } },
{ "type": "Feature", "properties": { "NAME": "Taiba Niassene", "PLACE": "village", "ADDR:CITY": null, "ADDR:HOUSE": null, "ADDR:FLATS": null, "ADDR:POSTC": null }, "geometry": { "type": "Point", "coordinates": [ -15.9058641, 13.7651555 ] } },
{ "type": "Feature", "properties": { "NAME": "Mbacké", "PLACE": "town", "ADDR:CITY": null, "ADDR:HOUSE": null, "ADDR:FLATS": null, "ADDR:POSTC": null }, "geometry": { "type": "Point", "coordinates": [ -15.904968, 14.7937717 ] } },
{ "type": "Feature", "properties": { "NAME": "Kouyre", "PLACE": "village", "ADDR:CITY": null, "ADDR:HOUSE": null, "ADDR:FLATS": null, "ADDR:POSTC": null }, "geometry": { "type": "Point", "coordinates": [ -15.9018849, 14.1290179 ] } },
{ "type": "Feature", "properties": { "NAME": "Sier", "PLACE": "village", "ADDR:CITY": null, "ADDR:HOUSE": null, "ADDR:FLATS": null, "ADDR:POSTC": null }, "geometry": { "type": "Point", "coordinates": [ -15.8915932, 16.0763496 ] } },
{ "type": "Feature", "properties": { "NAME": "Ngathie Naoundé", "PLACE": "village", "ADDR:CITY": null, "ADDR:HOUSE": null, "ADDR:FLATS": null, "ADDR:POSTC": null }, "geometry": { "type": "Point", "coordinates": [ -15.8850471, 14.1297781 ] } },
{ "type": "Feature", "properties": { "NAME": "Pantodosse Diola", "PLACE": "town", "ADDR:CITY": null, "ADDR:HOUSE": null, "ADDR:FLATS": null, "ADDR:POSTC": null }, "geometry": { "type": "Point", "coordinates": [ -15.8779525, 12.5725611 ] } },
{ "type": "Feature", "properties": { "NAME": "Touba", "PLACE": "city", "ADDR:CITY": null, "ADDR:HOUSE": null, "ADDR:FLATS": null, "ADDR:POSTC": null }, "geometry": { "type": "Point", "coordinates": [ -15.8756139, 14.8696072 ] } },
{ "type": "Feature", "properties": { "NAME": "Keur Amsatha", "PLACE": "hamlet", "ADDR:CITY": null, "ADDR:HOUSE": null, "ADDR:FLATS": null, "ADDR:POSTC": null }, "geometry": { "type": "Point", "coordinates": [ -15.8718765, 13.7936874 ] } },
{ "type": "Feature", "properties": { "NAME": "Keur Demba", "PLACE": "village", "ADDR:CITY": null, "ADDR:HOUSE": null, "ADDR:FLATS": null, "ADDR:POSTC": null }, "geometry": { "type": "Point", "coordinates": [ -15.8699929, 14.1316629 ] } },
{ "type": "Feature", "properties": { "NAME": "N'Dingirai", "PLACE": "village", "ADDR:CITY": null, "ADDR:HOUSE": null, "ADDR:FLATS": null, "ADDR:POSTC": null }, "geometry": { "type": "Point", "coordinates": [ -15.8509086, 13.8431525 ] } },
{ "type": "Feature", "properties": { "NAME": "Mbodjenne", "PLACE": "village", "ADDR:CITY": null, "ADDR:HOUSE": null, "ADDR:FLATS": null, "ADDR:POSTC": null }, "geometry": { "type": "Point", "coordinates": [ -15.8423377, 14.1346473 ] } },
{ "type": "Feature", "properties": { "NAME": "Fos", "PLACE": "village", "ADDR:CITY": null, "ADDR:HOUSE": null, "ADDR:FLATS": null, "ADDR:POSTC": null }, "geometry": { "type": "Point", "coordinates": [ -15.8418114, 16.1591364 ] } },
{ "type": "Feature", "properties": { "NAME": "Keur Mbouki", "PLACE": "village", "ADDR:CITY": null, "ADDR:HOUSE": null, "ADDR:FLATS": null, "ADDR:POSTC": null }, "geometry": { "type": "Point", "coordinates": [ -15.8406726, 14.1348637 ] } },
{ "type": "Feature", "properties": { "NAME": "Keur Soulaye", "PLACE": "village", "ADDR:CITY": null, "ADDR:HOUSE": null, "ADDR:FLATS": null, "ADDR:POSTC": null }, "geometry": { "type": "Point", "coordinates": [ -15.8349415, 13.8265464 ] } },
{ "type": "Feature", "properties": { "NAME": "Bougary", "PLACE": "village", "ADDR:CITY": null, "ADDR:HOUSE": null, "ADDR:FLATS": null, "ADDR:POSTC": null }, "geometry": { "type": "Point", "coordinates": [ -15.8307917, 13.0009247 ] } },
{ "type": "Feature", "properties": { "NAME": "Keur Djim", "PLACE": "village", "ADDR:CITY": null, "ADDR:HOUSE": null, "ADDR:FLATS": null, "ADDR:POSTC": null }, "geometry": { "type": "Point", "coordinates": [ -15.8124791, 13.8035213 ] } },
{ "type": "Feature", "properties": { "NAME": "روصو", "PLACE": "town", "ADDR:CITY": null, "ADDR:HOUSE": null, "ADDR:FLATS": null, "ADDR:POSTC": null }, "geometry": { "type": "Point", "coordinates": [ -15.8099745, 16.5132467 ] } },
{ "type": "Feature", "properties": { "NAME": "Djibanar", "PLACE": "town", "ADDR:CITY": null, "ADDR:HOUSE": null, "ADDR:FLATS": null, "ADDR:POSTC": null }, "geometry": { "type": "Point", "coordinates": [ -15.8085874, 12.5473817 ] } },
{ "type": "Feature", "properties": { "NAME": "Nguer", "PLACE": "village", "ADDR:CITY": null, "ADDR:HOUSE": null, "ADDR:FLATS": null, "ADDR:POSTC": null }, "geometry": { "type": "Point", "coordinates": [ -15.8026509, 14.1399619 ] } },
{ "type": "Feature", "properties": { "NAME": "Mbane", "PLACE": "village", "ADDR:CITY": null, "ADDR:HOUSE": null, "ADDR:FLATS": null, "ADDR:POSTC": null }, "geometry": { "type": "Point", "coordinates": [ -15.7994111, 16.268586 ] } },
{ "type": "Feature", "properties": { "NAME": "Paoskoto", "PLACE": "village", "ADDR:CITY": null, "ADDR:HOUSE": null, "ADDR:FLATS": null, "ADDR:POSTC": null }, "geometry": { "type": "Point", "coordinates": [ -15.7993804, 13.7882735 ] } },
{ "type": "Feature", "properties": { "NAME": "Keur Ndari Ndiaye", "PLACE": "village", "ADDR:CITY": null, "ADDR:HOUSE": null, "ADDR:FLATS": null, "ADDR:POSTC": null }, "geometry": { "type": "Point", "coordinates": [ -15.7824441, 13.7670391 ] } },
{ "type": "Feature", "properties": { "NAME": "Barandama", "PLACE": "village", "ADDR:CITY": null, "ADDR:HOUSE": null, "ADDR:FLATS": null, "ADDR:POSTC": null }, "geometry": { "type": "Point", "coordinates": [ -15.7818613, 13.0176879 ] } },
{ "type": "Feature", "properties": { "NAME": "Nioro du Rip", "PLACE": "town", "ADDR:CITY": null, "ADDR:HOUSE": null, "ADDR:FLATS": null, "ADDR:POSTC": null }, "geometry": { "type": "Point", "coordinates": [ -15.7748714, 13.749233 ] } },
{ "type": "Feature", "properties": { "NAME": "Birkilane", "PLACE": "village", "ADDR:CITY": null, "ADDR:HOUSE": null, "ADDR:FLATS": null, "ADDR:POSTC": null }, "geometry": { "type": "Point", "coordinates": [ -15.7499152, 14.1271063 ] } },
{ "type": "Feature", "properties": { "NAME": "Barro", "PLACE": "town", "ADDR:CITY": null, "ADDR:HOUSE": null, "ADDR:FLATS": null, "ADDR:POSTC": null }, "geometry": { "type": "Point", "coordinates": [ -15.7415839, 12.3414976 ] } },
{ "type": "Feature", "properties": { "NAME": "Nawel", "PLACE": "village", "ADDR:CITY": null, "ADDR:HOUSE": null, "ADDR:FLATS": null, "ADDR:POSTC": null }, "geometry": { "type": "Point", "coordinates": [ -15.7353669, 14.1168849 ] } },
{ "type": "Feature", "properties": { "NAME": "Bokinedo", "PLACE": "village", "ADDR:CITY": null, "ADDR:HOUSE": null, "ADDR:FLATS": null, "ADDR:POSTC": null }, "geometry": { "type": "Point", "coordinates": [ -15.7322915, 16.0210843 ] } },
{ "type": "Feature", "properties": { "NAME": "Ntiago", "PLACE": "village", "ADDR:CITY": null, "ADDR:HOUSE": null, "ADDR:FLATS": null, "ADDR:POSTC": null }, "geometry": { "type": "Point", "coordinates": [ -15.7185585, 16.3802803 ] } },
{ "type": "Feature", "properties": { "NAME": "Keur Massamba Diagne", "PLACE": "village", "ADDR:CITY": null, "ADDR:HOUSE": null, "ADDR:FLATS": null, "ADDR:POSTC": null }, "geometry": { "type": "Point", "coordinates": [ -15.7022507, 15.9762834 ] } },
{ "type": "Feature", "properties": { "NAME": "Bounkiling", "PLACE": "village", "ADDR:CITY": null, "ADDR:HOUSE": null, "ADDR:FLATS": null, "ADDR:POSTC": null }, "geometry": { "type": "Point", "coordinates": [ -15.6926409, 13.0405368 ] } },
{ "type": "Feature", "properties": { "NAME": "Richard Toll", "PLACE": "town", "ADDR:CITY": null, "ADDR:HOUSE": null, "ADDR:FLATS": null, "ADDR:POSTC": null }, "geometry": { "type": "Point", "coordinates": [ -15.6884494, 16.4662943 ] } },
{ "type": "Feature", "properties": { "NAME": "Bowde Doubal", "PLACE": "village", "ADDR:CITY": null, "ADDR:HOUSE": null, "ADDR:FLATS": null, "ADDR:POSTC": null }, "geometry": { "type": "Point", "coordinates": [ -15.67015, 16.0166294 ] } },
{ "type": "Feature", "properties": { "NAME": "Ndiba Ndayene", "PLACE": "village", "ADDR:CITY": null, "ADDR:HOUSE": null, "ADDR:FLATS": null, "ADDR:POSTC": null }, "geometry": { "type": "Point", "coordinates": [ -15.6594003, 13.6816267 ] } },
{ "type": "Feature", "properties": { "NAME": "Dagaye N'dene", "PLACE": "village", "ADDR:CITY": null, "ADDR:HOUSE": null, "ADDR:FLATS": null, "ADDR:POSTC": null }, "geometry": { "type": "Point", "coordinates": [ -15.6505405, 14.088865 ] } },
{ "type": "Feature", "properties": { "NAME": "Diaroumé", "PLACE": "village", "ADDR:CITY": null, "ADDR:HOUSE": null, "ADDR:FLATS": null, "ADDR:POSTC": null }, "geometry": { "type": "Point", "coordinates": [ -15.6491227, 13.055416 ] } },
{ "type": "Feature", "properties": { "NAME": "Dogaro", "PLACE": "hamlet", "ADDR:CITY": null, "ADDR:HOUSE": null, "ADDR:FLATS": null, "ADDR:POSTC": null }, "geometry": { "type": "Point", "coordinates": [ -15.623999, 13.6448698 ] } },
{ "type": "Feature", "properties": { "NAME": "Taoune", "PLACE": "village", "ADDR:CITY": null, "ADDR:HOUSE": null, "ADDR:FLATS": null, "ADDR:POSTC": null }, "geometry": { "type": "Point", "coordinates": [ -15.610685, 13.0797978 ] } },
{ "type": "Feature", "properties": { "NAME": "Ker Ayib", "PLACE": "village", "ADDR:CITY": null, "ADDR:HOUSE": null, "ADDR:FLATS": null, "ADDR:POSTC": null }, "geometry": { "type": "Point", "coordinates": [ -15.6090978, 13.594463 ] } },
{ "type": "Feature", "properties": { "NAME": "Medina Torodo", "PLACE": "hamlet", "ADDR:CITY": null, "ADDR:HOUSE": null, "ADDR:FLATS": null, "ADDR:POSTC": null }, "geometry": { "type": "Point", "coordinates": [ -15.6062544, 13.0886807 ] } },
{ "type": "Feature", "properties": { "NAME": "Farafenni", "PLACE": "town", "ADDR:CITY": null, "ADDR:HOUSE": null, "ADDR:FLATS": null, "ADDR:POSTC": null }, "geometry": { "type": "Point", "coordinates": [ -15.5991546, 13.5718329 ] } },
{ "type": "Feature", "properties": { "NAME": "Sare Lamou", "PLACE": "village", "ADDR:CITY": null, "ADDR:HOUSE": null, "ADDR:FLATS": null, "ADDR:POSTC": null }, "geometry": { "type": "Point", "coordinates": [ -15.597194, 16.0756898 ] } },
{ "type": "Feature", "properties": { "NAME": "Keur Dabou", "PLACE": "village", "ADDR:CITY": null, "ADDR:HOUSE": null, "ADDR:FLATS": null, "ADDR:POSTC": null }, "geometry": { "type": "Point", "coordinates": [ -15.5941325, 14.0887818 ] } },
{ "type": "Feature", "properties": { "NAME": "Sare Alpha", "PLACE": "hamlet", "ADDR:CITY": null, "ADDR:HOUSE": null, "ADDR:FLATS": null, "ADDR:POSTC": null }, "geometry": { "type": "Point", "coordinates": [ -15.5921465, 13.1169659 ] } },
{ "type": "Feature", "properties": { "NAME": "Media Sabakh", "PLACE": "village", "ADDR:CITY": null, "ADDR:HOUSE": null, "ADDR:FLATS": null, "ADDR:POSTC": null }, "geometry": { "type": "Point", "coordinates": [ -15.5813759, 13.6021338 ] } },
{ "type": "Feature", "properties": { "NAME": "Medina Bocar", "PLACE": "village", "ADDR:CITY": null, "ADDR:HOUSE": null, "ADDR:FLATS": null, "ADDR:POSTC": null }, "geometry": { "type": "Point", "coordinates": [ -15.5636744, 13.1740864 ] } },
{ "type": "Feature", "properties": { "NAME": "Sédhiou", "PLACE": "village", "ADDR:CITY": null, "ADDR:HOUSE": null, "ADDR:FLATS": null, "ADDR:POSTC": null }, "geometry": { "type": "Point", "coordinates": [ -15.55842, 12.7089254 ] } },
{ "type": "Feature", "properties": { "NAME": "Pakalinding", "PLACE": "village", "ADDR:CITY": null, "ADDR:HOUSE": null, "ADDR:FLATS": null, "ADDR:POSTC": null }, "geometry": { "type": "Point", "coordinates": [ -15.5523483, 13.4651123 ] } },
{ "type": "Feature", "properties": { "NAME": "Sare Pathé", "PLACE": "hamlet", "ADDR:CITY": null, "ADDR:HOUSE": null, "ADDR:FLATS": null, "ADDR:POSTC": null }, "geometry": { "type": "Point", "coordinates": [ -15.5500322, 13.2014722 ] } },
{ "type": "Feature", "properties": { "NAME": "Kaffrine", "PLACE": "town", "ADDR:CITY": null, "ADDR:HOUSE": null, "ADDR:FLATS": null, "ADDR:POSTC": null }, "geometry": { "type": "Point", "coordinates": [ -15.5398532, 14.1034581 ] } },
{ "type": "Feature", "properties": { "NAME": "Boun Diantho", "PLACE": "hamlet", "ADDR:CITY": null, "ADDR:HOUSE": null, "ADDR:FLATS": null, "ADDR:POSTC": null }, "geometry": { "type": "Point", "coordinates": [ -15.5391911, 13.2232351 ] } },
{ "type": "Feature", "properties": { "NAME": "Mansa Konko", "PLACE": "town", "ADDR:CITY": null, "ADDR:HOUSE": null, "ADDR:FLATS": null, "ADDR:POSTC": null }, "geometry": { "type": "Point", "coordinates": [ -15.5367583, 13.4402749 ] } },
{ "type": "Feature", "properties": { "NAME": "Soma", "PLACE": "village", "ADDR:CITY": null, "ADDR:HOUSE": null, "ADDR:FLATS": null, "ADDR:POSTC": null }, "geometry": { "type": "Point", "coordinates": [ -15.5339052, 13.4377236 ] } },
{ "type": "Feature", "properties": { "NAME": "Senobo", "PLACE": "village", "ADDR:CITY": null, "ADDR:HOUSE": null, "ADDR:FLATS": null, "ADDR:POSTC": null }, "geometry": { "type": "Point", "coordinates": [ -15.5292785, 13.3837216 ] } },
{ "type": "Feature", "properties": { "NAME": "Sinbandi", "PLACE": "town", "ADDR:CITY": null, "ADDR:HOUSE": null, "ADDR:FLATS": null, "ADDR:POSTC": null }, "geometry": { "type": "Point", "coordinates": [ -15.5179647, 12.625956 ] } },
{ "type": "Feature", "properties": { "NAME": "Medina Mody", "PLACE": "village", "ADDR:CITY": null, "ADDR:HOUSE": null, "ADDR:FLATS": null, "ADDR:POSTC": null }, "geometry": { "type": "Point", "coordinates": [ -15.5170164, 13.2677494 ] } },
{ "type": "Feature", "properties": { "NAME": "Wandifa", "PLACE": "village", "ADDR:CITY": null, "ADDR:HOUSE": null, "ADDR:FLATS": null, "ADDR:POSTC": null }, "geometry": { "type": "Point", "coordinates": [ -15.5165014, 13.3649702 ] } },
{ "type": "Feature", "properties": { "NAME": "Dagana", "PLACE": "town", "ADDR:CITY": null, "ADDR:HOUSE": null, "ADDR:FLATS": null, "ADDR:POSTC": null }, "geometry": { "type": "Point", "coordinates": [ -15.5055674, 16.5179788 ] } },
{ "type": "Feature", "properties": { "NAME": "The Gambia", "PLACE": "country", "ADDR:CITY": null, "ADDR:HOUSE": null, "ADDR:FLATS": null, "ADDR:POSTC": null }, "geometry": { "type": "Point", "coordinates": [ -15.4900465, 13.4700621 ] } },
{ "type": "Feature", "properties": { "NAME": "Sikilo", "PLACE": "village", "ADDR:CITY": null, "ADDR:HOUSE": null, "ADDR:FLATS": null, "ADDR:POSTC": null }, "geometry": { "type": "Point", "coordinates": [ -15.4896766, 14.1056973 ] } },
{ "type": "Feature", "properties": { "NAME": "Dahra", "PLACE": "town", "ADDR:CITY": null, "ADDR:HOUSE": null, "ADDR:FLATS": null, "ADDR:POSTC": null }, "geometry": { "type": "Point", "coordinates": [ -15.4770162, 15.3505439 ] } },
{ "type": "Feature", "properties": { "NAME": "Pete", "PLACE": "village", "ADDR:CITY": null, "ADDR:HOUSE": null, "ADDR:FLATS": null, "ADDR:POSTC": null }, "geometry": { "type": "Point", "coordinates": [ -15.4460746, 14.1052977 ] } },
{ "type": "Feature", "properties": { "NAME": "Tanaff", "PLACE": "town", "ADDR:CITY": null, "ADDR:HOUSE": null, "ADDR:FLATS": null, "ADDR:POSTC": null }, "geometry": { "type": "Point", "coordinates": [ -15.4291589, 12.6534915 ] } },
{ "type": "Feature", "properties": { "NAME": "Touba Madinatoul", "PLACE": "village", "ADDR:CITY": null, "ADDR:HOUSE": null, "ADDR:FLATS": null, "ADDR:POSTC": null }, "geometry": { "type": "Point", "coordinates": [ -15.3864909, 14.0923614 ] } },
{ "type": "Feature", "properties": { "NAME": "Louga", "PLACE": "state", "ADDR:CITY": null, "ADDR:HOUSE": null, "ADDR:FLATS": null, "ADDR:POSTC": null }, "geometry": { "type": "Point", "coordinates": [ -15.3441834, 15.2401304 ] } },
{ "type": "Feature", "properties": { "NAME": "Diokoul", "PLACE": "village", "ADDR:CITY": null, "ADDR:HOUSE": null, "ADDR:FLATS": null, "ADDR:POSTC": null }, "geometry": { "type": "Point", "coordinates": [ -15.3028403, 14.0716901 ] } },
{ "type": "Feature", "properties": { "NAME": "Saint-Louis", "PLACE": "state", "ADDR:CITY": null, "ADDR:HOUSE": null, "ADDR:FLATS": null, "ADDR:POSTC": null }, "geometry": { "type": "Point", "coordinates": [ -15.2954315, 16.187637 ] } },
{ "type": "Feature", "properties": { "NAME": "Kaur", "PLACE": "town", "ADDR:CITY": null, "ADDR:HOUSE": null, "ADDR:FLATS": null, "ADDR:POSTC": null }, "geometry": { "type": "Point", "coordinates": [ -15.2924986, 13.7248265 ] } },
{ "type": "Feature", "properties": { "NAME": "Malem Thierigne", "PLACE": "village", "ADDR:CITY": null, "ADDR:HOUSE": null, "ADDR:FLATS": null, "ADDR:POSTC": null }, "geometry": { "type": "Point", "coordinates": [ -15.2343818, 14.0522742 ] } },
{ "type": "Feature", "properties": { "NAME": "Farim", "PLACE": "town", "ADDR:CITY": null, "ADDR:HOUSE": null, "ADDR:FLATS": null, "ADDR:POSTC": null }, "geometry": { "type": "Point", "coordinates": [ -15.2249177, 12.4955724 ] } },
{ "type": "Feature", "properties": { "NAME": "Siane", "PLACE": "village", "ADDR:CITY": null, "ADDR:HOUSE": null, "ADDR:FLATS": null, "ADDR:POSTC": null }, "geometry": { "type": "Point", "coordinates": [ -15.1516582, 14.0066753 ] } },
{ "type": "Feature", "properties": { "NAME": "MIssira", "PLACE": "village", "ADDR:CITY": null, "ADDR:HOUSE": null, "ADDR:FLATS": null, "ADDR:POSTC": null }, "geometry": { "type": "Point", "coordinates": [ -15.1155664, 13.9909851 ] } },
{ "type": "Feature", "properties": { "NAME": "Linguère", "PLACE": "town", "ADDR:CITY": null, "ADDR:HOUSE": null, "ADDR:FLATS": null, "ADDR:POSTC": null }, "geometry": { "type": "Point", "coordinates": [ -15.1110672, 15.3984077 ] } },
{ "type": "Feature", "properties": { "NAME": "Mbaye Mbaye", "PLACE": "village", "ADDR:CITY": null, "ADDR:HOUSE": null, "ADDR:FLATS": null, "ADDR:POSTC": null }, "geometry": { "type": "Point", "coordinates": [ -15.0458289, 13.9741777 ] } },
{ "type": "Feature", "properties": { "NAME": "Podor", "PLACE": "town", "ADDR:CITY": null, "ADDR:HOUSE": null, "ADDR:FLATS": null, "ADDR:POSTC": null }, "geometry": { "type": "Point", "coordinates": [ -14.9586692, 16.6527051 ] } },
{ "type": "Feature", "properties": { "NAME": "Morfil", "PLACE": "island", "ADDR:CITY": null, "ADDR:HOUSE": null, "ADDR:FLATS": null, "ADDR:POSTC": null }, "geometry": { "type": "Point", "coordinates": [ -14.9226027, 16.6207567 ] } },
{ "type": "Feature", "properties": { "NAME": "Touba Keur Serigne Djebel", "PLACE": "village", "ADDR:CITY": null, "ADDR:HOUSE": null, "ADDR:FLATS": null, "ADDR:POSTC": null }, "geometry": { "type": "Point", "coordinates": [ -14.8408395, 13.9657902 ] } },
{ "type": "Feature", "properties": { "NAME": "Koungheul", "PLACE": "town", "ADDR:CITY": null, "ADDR:HOUSE": null, "ADDR:FLATS": null, "ADDR:POSTC": null }, "geometry": { "type": "Point", "coordinates": [ -14.8141032, 13.979733 ] } },
{ "type": "Feature", "properties": { "NAME": "Janjanbureh", "PLACE": "town", "ADDR:CITY": null, "ADDR:HOUSE": null, "ADDR:FLATS": null, "ADDR:POSTC": null }, "geometry": { "type": "Point", "coordinates": [ -14.7596035, 13.5376727 ] } },
{ "type": "Feature", "properties": { "NAME": "Bansang", "PLACE": "town", "ADDR:CITY": null, "ADDR:HOUSE": null, "ADDR:FLATS": null, "ADDR:POSTC": null }, "geometry": { "type": "Point", "coordinates": [ -14.6587882, 13.4357739 ] } },
{ "type": "Feature", "properties": { "NAME": "Tiara", "PLACE": "town", "ADDR:CITY": null, "ADDR:HOUSE": null, "ADDR:FLATS": null, "ADDR:POSTC": null }, "geometry": { "type": "Point", "coordinates": [ -14.5513395, 12.8620358 ] } },
{ "type": "Feature", "properties": { "NAME": "Dabo", "PLACE": "town", "ADDR:CITY": null, "ADDR:HOUSE": null, "ADDR:FLATS": null, "ADDR:POSTC": null }, "geometry": { "type": "Point", "coordinates": [ -14.4771818, 12.8826195 ] } },
{ "type": "Feature", "properties": { "NAME": "Sénégal", "PLACE": "country", "ADDR:CITY": null, "ADDR:HOUSE": null, "ADDR:FLATS": null, "ADDR:POSTC": null }, "geometry": { "type": "Point", "coordinates": [ -14.4529614, 14.4750609 ] } },
{ "type": "Feature", "properties": { "NAME": "بوكى", "PLACE": "town", "ADDR:CITY": null, "ADDR:HOUSE": null, "ADDR:FLATS": null, "ADDR:POSTC": null }, "geometry": { "type": "Point", "coordinates": [ -14.2660322, 16.5958103 ] } },
{ "type": "Feature", "properties": { "NAME": "Basse Santa Su", "PLACE": "town", "ADDR:CITY": null, "ADDR:HOUSE": null, "ADDR:FLATS": null, "ADDR:POSTC": null }, "geometry": { "type": "Point", "coordinates": [ -14.2101436, 13.3080637 ] } },
{ "type": "Feature", "properties": { "NAME": "Nova Lamego", "PLACE": "town", "ADDR:CITY": null, "ADDR:HOUSE": null, "ADDR:FLATS": null, "ADDR:POSTC": null }, "geometry": { "type": "Point", "coordinates": [ -14.2013737, 12.26458 ] } },
{ "type": "Feature", "properties": { "NAME": "Vélingara", "PLACE": "town", "ADDR:CITY": null, "ADDR:HOUSE": null, "ADDR:FLATS": null, "ADDR:POSTC": null }, "geometry": { "type": "Point", "coordinates": [ -14.1077665, 13.1470442 ] } },
{ "type": "Feature", "properties": { "NAME": "Kounkané", "PLACE": "town", "ADDR:CITY": null, "ADDR:HOUSE": null, "ADDR:FLATS": null, "ADDR:POSTC": null }, "geometry": { "type": "Point", "coordinates": [ -14.0777257, 12.9277973 ] } },
{ "type": "Feature", "properties": { "NAME": "Saldé", "PLACE": "village", "ADDR:CITY": null, "ADDR:HOUSE": null, "ADDR:FLATS": null, "ADDR:POSTC": null }, "geometry": { "type": "Point", "coordinates": [ -13.8809039, 16.1624212 ] } },
{ "type": "Feature", "properties": { "NAME": "Bantantinty", "PLACE": "village", "ADDR:CITY": null, "ADDR:HOUSE": null, "ADDR:FLATS": null, "ADDR:POSTC": null }, "geometry": { "type": "Point", "coordinates": [ -13.8575313, 13.5330888 ] } },
{ "type": "Feature", "properties": { "NAME": "Médina Gonassé", "PLACE": "city", "ADDR:CITY": null, "ADDR:HOUSE": null, "ADDR:FLATS": null, "ADDR:POSTC": null }, "geometry": { "type": "Point", "coordinates": [ -13.7603239, 13.1381844 ] } },
{ "type": "Feature", "properties": { "NAME": "Kandika", "PLACE": "town", "ADDR:CITY": null, "ADDR:HOUSE": null, "ADDR:FLATS": null, "ADDR:POSTC": null }, "geometry": { "type": "Point", "coordinates": [ -13.6828872, 12.2697997 ] } },
{ "type": "Feature", "properties": { "NAME": "Tambacounda", "PLACE": "city", "ADDR:CITY": null, "ADDR:HOUSE": null, "ADDR:FLATS": null, "ADDR:POSTC": null }, "geometry": { "type": "Point", "coordinates": [ -13.6722726, 13.7709591 ] } },
{ "type": "Feature", "properties": { "NAME": "Mdaylaye", "PLACE": "village", "ADDR:CITY": null, "ADDR:HOUSE": null, "ADDR:FLATS": null, "ADDR:POSTC": null }, "geometry": { "type": "Point", "coordinates": [ -13.5898551, 13.6169159 ] } },
{ "type": "Feature", "properties": { "NAME": "Missira", "PLACE": "village", "ADDR:CITY": null, "ADDR:HOUSE": null, "ADDR:FLATS": null, "ADDR:POSTC": null }, "geometry": { "type": "Point", "coordinates": [ -13.508264, 13.523706 ] } },
{ "type": "Feature", "properties": { "NAME": "Kaédi \/ كيهيدي", "PLACE": "town", "ADDR:CITY": null, "ADDR:HOUSE": null, "ADDR:FLATS": null, "ADDR:POSTC": null }, "geometry": { "type": "Point", "coordinates": [ -13.5038404, 16.1504784 ] } },
{ "type": "Feature", "properties": { "NAME": "Ardoulaye", "PLACE": "village", "ADDR:CITY": null, "ADDR:HOUSE": null, "ADDR:FLATS": null, "ADDR:POSTC": null }, "geometry": { "type": "Point", "coordinates": [ -13.459928, 13.485593 ] } },
{ "type": "Feature", "properties": { "NAME": "Kotiari Naoude", "PLACE": "town", "ADDR:CITY": null, "ADDR:HOUSE": null, "ADDR:FLATS": null, "ADDR:POSTC": null }, "geometry": { "type": "Point", "coordinates": [ -13.4555344, 13.8920606 ] } },
{ "type": "Feature", "properties": { "NAME": "Gourel", "PLACE": "village", "ADDR:CITY": null, "ADDR:HOUSE": null, "ADDR:FLATS": null, "ADDR:POSTC": null }, "geometry": { "type": "Point", "coordinates": [ -13.424107, 13.434488 ] } },
{ "type": "Feature", "properties": { "NAME": "Wassadou", "PLACE": "village", "ADDR:CITY": null, "ADDR:HOUSE": null, "ADDR:FLATS": null, "ADDR:POSTC": null }, "geometry": { "type": "Point", "coordinates": [ -13.3408201, 13.3485511 ] } },
{ "type": "Feature", "properties": { "NAME": "Ouro Sagui", "PLACE": "town", "ADDR:CITY": null, "ADDR:HOUSE": null, "ADDR:FLATS": null, "ADDR:POSTC": null }, "geometry": { "type": "Point", "coordinates": [ -13.3202653, 15.6039991 ] } },
{ "type": "Feature", "properties": { "NAME": "Koundara", "PLACE": "town", "ADDR:CITY": null, "ADDR:HOUSE": null, "ADDR:FLATS": null, "ADDR:POSTC": null }, "geometry": { "type": "Point", "coordinates": [ -13.298509, 12.4851543 ] } },
{ "type": "Feature", "properties": { "NAME": "Diala Koto", "PLACE": "town", "ADDR:CITY": null, "ADDR:HOUSE": null, "ADDR:FLATS": null, "ADDR:POSTC": null }, "geometry": { "type": "Point", "coordinates": [ -13.279121, 13.31176 ] } },
{ "type": "Feature", "properties": { "NAME": "Matam", "PLACE": "town", "ADDR:CITY": null, "ADDR:HOUSE": null, "ADDR:FLATS": null, "ADDR:POSTC": null }, "geometry": { "type": "Point", "coordinates": [ -13.255916, 15.6565633 ] } },
{ "type": "Feature", "properties": { "NAME": "Camp Lion", "PLACE": "village", "ADDR:CITY": null, "ADDR:HOUSE": null, "ADDR:FLATS": null, "ADDR:POSTC": null }, "geometry": { "type": "Point", "coordinates": [ -13.2390546, 13.0266108 ] } },
{ "type": "Feature", "properties": { "NAME": "Dar Salam", "PLACE": "village", "ADDR:CITY": null, "ADDR:HOUSE": null, "ADDR:FLATS": null, "ADDR:POSTC": null }, "geometry": { "type": "Point", "coordinates": [ -13.1974751, 13.260704 ] } },
{ "type": "Feature", "properties": { "NAME": "Bala", "PLACE": "town", "ADDR:CITY": null, "ADDR:HOUSE": null, "ADDR:FLATS": null, "ADDR:POSTC": null }, "geometry": { "type": "Point", "coordinates": [ -13.1671432, 14.0193303 ] } },
{ "type": "Feature", "properties": { "NAME": "Dien", "PLACE": "village", "ADDR:CITY": null, "ADDR:HOUSE": null, "ADDR:FLATS": null, "ADDR:POSTC": null }, "geometry": { "type": "Point", "coordinates": [ -13.1171691, 13.2158301 ] } },
{ "type": "Feature", "properties": { "NAME": "Youkounkoun", "PLACE": "town", "ADDR:CITY": null, "ADDR:HOUSE": null, "ADDR:FLATS": null, "ADDR:POSTC": null }, "geometry": { "type": "Point", "coordinates": [ -13.1168912, 12.5357651 ] } },
{ "type": "Feature", "properties": { "NAME": "Gamon", "PLACE": "village", "ADDR:CITY": null, "ADDR:HOUSE": null, "ADDR:FLATS": null, "ADDR:POSTC": null }, "geometry": { "type": "Point", "coordinates": [ -13.113595, 13.2137841 ] } },
{ "type": "Feature", "properties": { "NAME": "Gamos", "PLACE": "village", "ADDR:CITY": null, "ADDR:HOUSE": null, "ADDR:FLATS": null, "ADDR:POSTC": null }, "geometry": { "type": "Point", "coordinates": [ -13.110045, 13.211763 ] } },
{ "type": "Feature", "properties": { "NAME": "Soudouta", "PLACE": "village", "ADDR:CITY": null, "ADDR:HOUSE": null, "ADDR:FLATS": null, "ADDR:POSTC": null }, "geometry": { "type": "Point", "coordinates": [ -12.7161998, 13.8040016 ] } },
{ "type": "Feature", "properties": { "NAME": "Goudiri", "PLACE": "town", "ADDR:CITY": null, "ADDR:HOUSE": null, "ADDR:FLATS": null, "ADDR:POSTC": null }, "geometry": { "type": "Point", "coordinates": [ -12.7151588, 14.1814908 ] } },
{ "type": "Feature", "properties": { "NAME": "Feto Niebe", "PLACE": "town", "ADDR:CITY": null, "ADDR:HOUSE": null, "ADDR:FLATS": null, "ADDR:POSTC": null }, "geometry": { "type": "Point", "coordinates": [ -12.6722435, 14.2205985 ] } },
{ "type": "Feature", "properties": { "NAME": "Bakel", "PLACE": "town", "ADDR:CITY": null, "ADDR:HOUSE": null, "ADDR:FLATS": null, "ADDR:POSTC": null }, "geometry": { "type": "Point", "coordinates": [ -12.4585337, 14.9039305 ] } },
{ "type": "Feature", "properties": { "NAME": "Batick Village", "PLACE": "hamlet", "ADDR:CITY": null, "ADDR:HOUSE": null, "ADDR:FLATS": null, "ADDR:POSTC": null }, "geometry": { "type": "Point", "coordinates": [ -12.3686038, 12.5435895 ] } },
{ "type": "Feature", "properties": { "NAME": "Kayan", "PLACE": "village", "ADDR:CITY": null, "ADDR:HOUSE": null, "ADDR:FLATS": null, "ADDR:POSTC": null }, "geometry": { "type": "Point", "coordinates": [ -12.3061359, 13.3197459 ] } },
{ "type": "Feature", "properties": { "NAME": "Kidira", "PLACE": "town", "ADDR:CITY": null, "ADDR:HOUSE": null, "ADDR:FLATS": null, "ADDR:POSTC": null }, "geometry": { "type": "Point", "coordinates": [ -12.2147659, 14.4580938 ] } },
{ "type": "Feature", "properties": { "NAME": "Kédougou", "PLACE": "town", "ADDR:CITY": null, "ADDR:HOUSE": null, "ADDR:FLATS": null, "ADDR:POSTC": null }, "geometry": { "type": "Point", "coordinates": [ -12.1834442, 12.5525176 ] } },
{ "type": "Feature", "properties": { "NAME": "Kedougou", "PLACE": "town", "ADDR:CITY": null, "ADDR:HOUSE": null, "ADDR:FLATS": null, "ADDR:POSTC": null }, "geometry": { "type": "Point", "coordinates": [ -12.1821794, 12.5543638 ] } },
{ "type": "Feature", "properties": { "NAME": "Djinji", "PLACE": "village", "ADDR:CITY": null, "ADDR:HOUSE": null, "ADDR:FLATS": null, "ADDR:POSTC": null }, "geometry": { "type": "Point", "coordinates": [ -12.1777913, 12.6767036 ] } },
{ "type": "Feature", "properties": { "NAME": "Baitilaye", "PLACE": "village", "ADDR:CITY": null, "ADDR:HOUSE": null, "ADDR:FLATS": null, "ADDR:POSTC": null }, "geometry": { "type": "Point", "coordinates": [ -12.154464, 12.7061439 ] } },
{ "type": "Feature", "properties": { "NAME": "Syllacounda", "PLACE": "village", "ADDR:CITY": null, "ADDR:HOUSE": null, "ADDR:FLATS": null, "ADDR:POSTC": null }, "geometry": { "type": "Point", "coordinates": [ -12.1272034, 12.6411216 ] } },
{ "type": "Feature", "properties": { "NAME": "Laminiya", "PLACE": "village", "ADDR:CITY": null, "ADDR:HOUSE": null, "ADDR:FLATS": null, "ADDR:POSTC": null }, "geometry": { "type": "Point", "coordinates": [ -12.1110071, 12.637901 ] } },
{ "type": "Feature", "properties": { "NAME": "Bransan", "PLACE": "village", "ADDR:CITY": null, "ADDR:HOUSE": null, "ADDR:FLATS": null, "ADDR:POSTC": null }, "geometry": { "type": "Point", "coordinates": [ -12.1060541, 13.261619 ] } },
{ "type": "Feature", "properties": { "NAME": "Diaguiri", "PLACE": "village", "ADDR:CITY": null, "ADDR:HOUSE": null, "ADDR:FLATS": null, "ADDR:POSTC": null }, "geometry": { "type": "Point", "coordinates": [ -12.0884031, 12.63119 ] } },
{ "type": "Feature", "properties": { "NAME": "Village", "PLACE": "village", "ADDR:CITY": null, "ADDR:HOUSE": null, "ADDR:FLATS": null, "ADDR:POSTC": null }, "geometry": { "type": "Point", "coordinates": [ -12.0547091, 13.182403 ] } },
{ "type": "Feature", "properties": { "NAME": "Diakhaba", "PLACE": "village", "ADDR:CITY": null, "ADDR:HOUSE": null, "ADDR:FLATS": null, "ADDR:POSTC": null }, "geometry": { "type": "Point", "coordinates": [ -11.979613, 12.7055271 ] } },
{ "type": "Feature", "properties": { "NAME": "Khossanto", "PLACE": "village", "ADDR:CITY": null, "ADDR:HOUSE": null, "ADDR:FLATS": null, "ADDR:POSTC": null }, "geometry": { "type": "Point", "coordinates": [ -11.9652631, 13.131397 ] } },
{ "type": "Feature", "properties": { "NAME": "Village", "PLACE": "village", "ADDR:CITY": null, "ADDR:HOUSE": null, "ADDR:FLATS": null, "ADDR:POSTC": null }, "geometry": { "type": "Point", "coordinates": [ -11.9284581, 12.7605219 ] } },
{ "type": "Feature", "properties": { "NAME": "Village", "PLACE": "village", "ADDR:CITY": null, "ADDR:HOUSE": null, "ADDR:FLATS": null, "ADDR:POSTC": null }, "geometry": { "type": "Point", "coordinates": [ -11.8779581, 12.82595 ] } },
{ "type": "Feature", "properties": { "NAME": "Dialafara", "PLACE": "town", "ADDR:CITY": null, "ADDR:HOUSE": null, "ADDR:FLATS": null, "ADDR:POSTC": null }, "geometry": { "type": "Point", "coordinates": [ -11.5000333, 13.4258545 ] } },
{ "type": "Feature", "properties": { "NAME": "Satadougou", "PLACE": "town", "ADDR:CITY": null, "ADDR:HOUSE": null, "ADDR:FLATS": null, "ADDR:POSTC": null }, "geometry": { "type": "Point", "coordinates": [ -11.398548, 12.6104659 ] } },
{ "type": "Feature", "properties": { "NAME": "Kenieba", "PLACE": "town", "ADDR:CITY": null, "ADDR:HOUSE": null, "ADDR:FLATS": null, "ADDR:POSTC": null }, "geometry": { "type": "Point", "coordinates": [ -11.3193999, 12.8451044 ] } }
]
}
